lat,lon,ID,Basin,Target,Norm_1970_2000,Location_name,Target_Name,Prob_exceedence_levels,Fcst_min_vol,Fcst_low_vol,Fcst_mid_vol,Fcst_upp_vol,Fcst_max_vol,Fcst_min_pct,Fcst_low_pct,Fcst_mid_pct,Fcst_upp_pct,Fcst_max_pct,Issue_month,Issue_year,File_Production_date_YYYYMMDD,State
38.7336075,-106.1600183,07091000,ac01,47,23,CHALK CK at Nathrop                     ,APR-JUL VOLUME,bound_10_30_50_70_90,13.4,16.2,18.6,21,25,58,70,81,91,109,6,2010,20100607,CO
38.7336075,-106.1600183,07091000,ac01,49,27,CHALK CK at Nathrop                     ,APR-SEP VOLUME,bound_10_30_50_70_90,14.8,18.6,22,25,31,55,69,81,93,115,6,2010,20100607,CO
38.7336075,-106.1600183,07091000,ac01,67,18,CHALK CK at Nathrop                     ,JUN-JUL VOLUME,bound_10_30_50_70_90,5.3,8.1,10.4,12.9,17.2,29,45,58,72,96,6,2010,20100607,CO
38.7336075,-106.1600183,07091000,ac01,69,23,CHALK CK at Nathrop                     ,JUN-SEP VOLUME,bound_10_30_50_70_90,6.6,10.5,13.8,16.8,23,29,46,60,73,100,6,2010,20100607,CO
38.5458306,-106.0105692,07091500,ac01,47,255,ARKANSAS RIVER at Salida (2)            ,APR-JUL VOLUME,bound_10_30_50_70_90,160,191,215,240,280,63,75,84,94,110,6,2010,20100607,CO
38.5458306,-106.0105692,07091500,ac01,49,310,ARKANSAS RIVER at Salida (2)            ,APR-SEP VOLUME,bound_10_30_50_70_90,182,225,260,295,355,59,73,84,95,115,6,2010,20100607,CO
38.5458306,-106.0105692,07091500,ac01,67,187,ARKANSAS RIVER at Salida (2)            ,JUN-JUL VOLUME,bound_10_30_50_70_90,89,120,144,170,210,48,64,77,91,112,6,2010,20100607,CO
38.5458306,-106.0105692,07091500,ac01,69,245,ARKANSAS RIVER at Salida (2)            ,JUN-SEP VOLUME,bound_10_30_50_70_90,111,155,189,225,285,45,63,77,92,116,6,2010,20100607,CO
38.1861106,-105.4836125,07095000,ac01,47,16.1,GRAPE CK nr Westcliffe                  ,APR-JUL VOLUME,bound_10_30_50_70_90,11.2,14,16.3,19.1,24,70,87,101,119,149,6,2010,20100607,CO
38.1861106,-105.4836125,07095000,ac01,49,19.6,GRAPE CK nr Westcliffe                  ,APR-SEP VOLUME,bound_10_30_50_70_90,13.2,16.8,19.8,23,29,67,86,101,117,148,6,2010,20100607,CO
38.1861106,-105.4836125,07095000,ac01,67,8.8,GRAPE CK nr Westcliffe                  ,JUN-JUL VOLUME,bound_10_30_50_70_90,2.9,5.7,8,10.8,15.5,33,65,91,123,176,6,2010,20100607,CO
38.1861106,-105.4836125,07095000,ac01,69,12.3,GRAPE CK nr Westcliffe                  ,JUN-SEP VOLUME,bound_10_30_50_70_90,4.9,8.5,11.5,15,21,40,69,93,122,171,6,2010,20100607,CO
38.2716694,-104.718033,07099400,ac01,47,385,PUEBLO RESERVOIR Inflow (2)             ,APR-JUL VOLUME,bound_10_30_50_70_90,220,255,285,315,370,57,66,74,82,96,6,2010,20100607,CO
38.2716694,-104.718033,07099400,ac01,49,485,PUEBLO RESERVOIR Inflow (2)             ,APR-SEP VOLUME,bound_10_30_50_70_90,265,320,360,405,480,55,66,74,84,99,6,2010,20100607,CO
38.2716694,-104.718033,07099400,ac01,67,259,PUEBLO RESERVOIR Inflow (2)             ,JUN-JUL VOLUME,bound_10_30_50_70_90,107,145,174,205,260,41,56,67,79,100,6,2010,20100607,CO
38.2716694,-104.718033,07099400,ac01,69,360,PUEBLO RESERVOIR Inflow (2)             ,JUN-SEP VOLUME,bound_10_30_50_70_90,152,210,250,295,370,42,58,69,82,103,6,2010,20100607,CO
37.7277817,-105.351395,07111000,ac01,47,12.3,HUERFANO RIVER nr Redwing               ,APR-JUL VOLUME,bound_10_30_50_70_90,10,11.5,12.7,14,16.1,81,93,103,114,131,6,2010,20100607,CO
37.7277817,-105.351395,07111000,ac01,49,15.5,HUERFANO RIVER nr Redwing               ,APR-SEP VOLUME,bound_10_30_50_70_90,12.1,14.3,15.9,17.7,21,78,92,103,114,135,6,2010,20100607,CO
37.7277817,-105.351395,07111000,ac01,67,7.7,HUERFANO RIVER nr Redwing               ,JUN-JUL VOLUME,bound_10_30_50_70_90,3.9,5.4,6.6,7.9,10,51,70,86,103,130,6,2010,20100607,CO
37.7277817,-105.351395,07111000,ac01,69,11,HUERFANO RIVER nr Redwing               ,JUN-SEP VOLUME,bound_10_30_50_70_90,6,8.2,9.8,11.6,14.5,55,75,89,105,132,6,2010,20100607,CO
37.4200128,-105.052778,07114000,ac01,47,11.3,CUCHARAS RIVER nr La Veta               ,APR-JUL VOLUME,bound_10_30_50_70_90,8.8,9.9,10.8,11.8,13.4,78,88,96,104,119,6,2010,20100607,CO
37.4200128,-105.052778,07114000,ac01,49,13,CUCHARAS RIVER nr La Veta               ,APR-SEP VOLUME,bound_10_30_50_70_90,10.1,11.5,12.5,13.6,15.4,78,88,96,105,118,6,2010,20100607,CO
37.4200128,-105.052778,07114000,ac01,67,6,CUCHARAS RIVER nr La Veta               ,JUN-JUL VOLUME,bound_10_30_50_70_90,2.8,3.9,4.8,5.8,7.4,47,65,80,97,123,6,2010,20100607,CO
37.4200128,-105.052778,07114000,ac01,69,7.8,CUCHARAS RIVER nr La Veta               ,JUN-SEP VOLUME,bound_10_30_50_70_90,4.1,5.5,6.5,7.6,9.4,53,71,83,97,121,6,2010,20100607,CO
37.1708522,-104.5091519,07124500,ac01,37,34,TRINIDAD LAKE Inflow (2)                ,MAR-JUL VOLUME,bound_10_30_50_70_90,30,34,37,41,47,88,100,109,121,138,6,2010,20100607,CO
37.1708522,-104.5091519,07124500,ac01,49,44,TRINIDAD LAKE Inflow (2)                ,APR-SEP VOLUME,bound_10_30_50_70_90,30,36,42,48,58,68,82,95,109,132,6,2010,20100607,CO
37.1708522,-104.5091519,07124500,ac01,67,19,TRINIDAD LAKE Inflow (2)                ,JUN-JUL VOLUME,bound_10_30_50_70_90,7.4,11.5,14.8,18.5,25,39,61,78,97,132,6,2010,20100607,CO
37.1708522,-104.5091519,07124500,ac01,69,31,TRINIDAD LAKE Inflow (2)                ,JUN-SEP VOLUME,bound_10_30_50_70_90,12.9,19.6,25,31,41,42,63,81,100,132,6,2010,20100607,CO
45.6553958,-121.5484072,14120000,cl01,67,82,Hood R At Tucker Bridge                 ,JUN-JUL VOLUME,bound_10_30_50_70_90,58,66,72,78,86,71,80,88,95,105,6,2010,20100607,OR
45.6553958,-121.5484072,14120000,cl01,69,125,Hood R At Tucker Bridge                 ,JUN-SEP VOLUME,bound_10_30_50_70_90,87,101,110,119,133,70,81,88,95,106,6,2010,20100607,OR
46.2648436,-121.245075,14107000,cl01,67,60,Klickitat R nr Glenwood                 ,JUN-JUL VOLUME,bound_10_30_50_70_90,46,53,57,61,68,77,88,95,102,113,6,2010,20100607,WA
46.2648436,-121.245075,14107000,cl01,69,78,Klickitat R nr Glenwood                 ,JUN-SEP VOLUME,bound_10_30_50_70_90,61,69,74,79,87,78,88,95,101,112,6,2010,20100607,WA
45.75,-121.2,14113000,cl01,67,180,Klickitat R nr Pitt                     ,JUN-JUL VOLUME,bound_10_30_50_70_90,159,177,189,200,220,88,98,105,111,122,6,2010,20100607,WA
45.75,-121.2,14113000,cl01,69,280,Klickitat R nr Pitt                     ,JUN-SEP VOLUME,bound_10_30_50_70_90,250,280,295,310,340,89,100,105,111,121,6,2010,20100607,WA
45.3987308,-122.1284178,14137000,cl01,67,109,Sandy R nr Marmot                       ,JUN-JUL VOLUME,bound_10_30_50_70_90,95,108,116,124,137,87,99,106,114,126,6,2010,20100607,OR
45.3987308,-122.1284178,14137000,cl01,69,159,Sandy R nr Marmot                       ,JUN-SEP VOLUME,bound_10_30_50_70_90,140,157,169,181,198,88,99,106,114,125,6,2010,20100607,OR
43.7220678,-122.4386589,14145500,cl01,69,132,Hills Creek Reservoir Inflow (12)      ,JUN-SEP VOLUME,bound_05_30_50_70_95,123,146,156,166,189,93,111,118,126,143,6,2010,20100607,OR
43.8012353,-122.5608878,14148000,cl01,67,220,MF Willamette bl NF (12)               ,JUN-JUL VOLUME,bound_05_30_50_70_95,200,245,265,285,330,91,111,120,130,150,6,2010,20100607,OR
43.8012353,-122.5608878,14148000,cl01,69,320,MF Willamette bl NF (12)               ,JUN-SEP VOLUME,bound_05_30_50_70_95,305,360,385,410,465,95,112,120,128,145,6,2010,20100607,OR
43.9456814,-122.8372967,14150000,cl01,69,340,Lookout Point Lake Inflow (12)         ,JUN-SEP VOLUME,bound_05_30_50_70_95,300,370,400,430,500,88,109,118,126,147,6,2010,20100607,OR
43.9442931,-122.7747939,14151000,cl01,69,29,Fall Creek Lake Inflow (12)            ,JUN-SEP VOLUME,bound_05_30_50_70_95,13.5,25,30,35,47,47,86,103,121,162,6,2010,20100607,OR
43.7206778,-123.0497994,14153500,cl01,69,10,Cottage Grove Lake Inflow (12)         ,JUN-SEP VOLUME,bound_05_30_50_70_95,4.7,9,11,13,17.3,47,90,110,130,173,6,2010,20100607,OR
43.7929011,-122.9914656,14155500,cl01,69,31,Dorena Lake Inflow (12)                ,JUN-SEP VOLUME,bound_05_30_50_70_95,6.9,26,35,44,63,22,84,113,142,203,6,2010,20100607,OR
44.2679,-122.0497825,14158850,cl01,67,115,McKenzie R bl Trail Bridge (2)          ,JUN-JUL VOLUME,bound_10_30_50_70_90,87,97,104,111,121,76,84,90,97,105,6,2010,20100607,OR
44.2679,-122.0497825,14158850,cl01,69,200,McKenzie R bl Trail Bridge (2)          ,JUN-SEP VOLUME,bound_10_30_50_70_90,155,170,180,190,205,78,85,90,95,102,6,2010,20100607,OR
44.1359581,-122.248391,14159500,cl01,67,64,Cougar Lake Inflow (12)                ,JUN-JUL VOLUME,bound_05_30_50_70_95,40,54,60,66,80,62,84,94,103,125,6,2010,20100607,OR
44.1359581,-122.248391,14159500,cl01,69,89,Cougar Lake Inflow (12)                ,JUN-SEP VOLUME,bound_05_30_50_70_95,60,76,83,90,106,67,85,93,101,119,6,2010,20100607,OR
44.2,-122.25,14161500,cl01,69,-99.9,Lookout Creek nr Blue River             ,JUN-SEP VOLUME,bound_05_30_50_70_95,2.33,4.85,6,7.15,9.67,-99.9,-99.9,-99.9,-99.9,-99.9,6,2010,20100607,OR
44.1623481,-122.3331192,14162200,cl01,69,19.1,Blue Lake Inflow (12)                  ,JUN-SEP VOLUME,bound_05_30_50_70_95,2.7,12.6,17.1,22,32,14,66,90,115,168,6,2010,20100607,OR
44.1248486,-122.47062,14162500,cl01,69,584,McKenzie R nr Vida (12)                ,JUN-SEP VOLUME,bound_05_30_50_70_95,540,620,655,690,770,92,106,112,118,132,6,2010,20100607,OR
44.7526219,-122.2984119,14181500,cl01,67,179,Detroit Lake Inflow (12)               ,JUN-JUL VOLUME,bound_05_30_50_70_95,86,136,158,180,230,48,76,88,101,128,6,2010,20100607,OR
44.7526219,-122.2984119,14181500,cl01,69,268,Detroit Lake Inflow (12)               ,JUN-SEP VOLUME,bound_05_30_50_70_95,148,210,235,260,320,55,78,88,97,119,6,2010,20100607,OR
44.7915108,-122.5789739,14182500,cl01,69,44,Little North Santiam R nr Mehama (1)    ,JUN-SEP VOLUME,bound_05_30_50_70_95,6.2,28,38,48,70,14,64,86,109,159,6,2010,20100607,OR
44.7887331,-122.6178633,14183000,cl01,69,336,North Santiam R at Mehama (12)         ,JUN-SEP VOLUME,bound_05_30_50_70_95,150,245,290,335,430,45,73,86,100,128,6,2010,20100607,OR
44.4526244,-122.5456392,14186100,cl01,69,105,Green Peter Lake Inflow (12)           ,JUN-SEP VOLUME,bound_05_30_50_70_95,29,73,93,113,157,28,70,89,108,150,6,2010,20100607,OR
44.4165136,-122.6748067,14186600,cl01,69,156,Foster Lake Inflow (12)                ,JUN-SEP VOLUME,bound_05_30_50_70_95,97,127,140,153,183,62,81,90,98,117,6,2010,20100607,OR
44.4984564,-122.8234214,14187500,cl01,67,130,South Santiam R at Waterloo (2)         ,JUN-JUL VOLUME,bound_10_30_50_70_90,105,117,125,133,145,81,90,96,102,112,6,2010,20100607,OR
44.4984564,-122.8234214,14187500,cl01,69,169,South Santiam R at Waterloo (2)         ,JUN-SEP VOLUME,bound_10_30_50_70_90,135,150,161,172,187,80,89,95,102,111,6,2010,20100607,OR
44.7120669,-122.7695322,14188800,cl01,67,17.2,Thomas Ck nr Scio                       ,JUN-JUL VOLUME,bound_10_30_50_70_90,0.6,12.7,21,29,41,3,74,122,169,238,6,2010,20100607,OR
45.4692797,-123.2001089,14202980,cl01,67,1.74,Scoggins Ck nr Gaston (2)               ,JUN-JUL VOLUME,bound_10_30_50_70_90,0.84,1.53,2,2.5,3.2,48,88,115,144,184,6,2010,20100607,OR
45.0712319,-121.9406344,14209000,cl01,67,50,Oak Grove fk above Power Intake         ,JUN-JUL VOLUME,bound_10_30_50_70_90,36,42,46,50,56,72,84,92,100,112,6,2010,20100607,OR
45.0712319,-121.9406344,14209000,cl01,69,87,Oak Grove fk above Power Intake         ,JUN-SEP VOLUME,bound_10_30_50_70_90,64,74,80,86,96,74,85,92,99,110,6,2010,20100607,OR
45.1248433,-122.0734136,14209500,cl01,67,158,Clackamas R ab Three Lynx (2)           ,JUN-JUL VOLUME,bound_10_30_50_70_90,98,126,145,164,192,62,80,92,104,122,6,2010,20100607,OR
45.1248433,-122.0734136,14209500,cl01,69,246,Clackamas R ab Three Lynx (2)           ,JUN-SEP VOLUME,bound_10_30_50_70_90,173,205,225,245,275,70,83,91,100,112,6,2010,20100607,OR
45.2998433,-122.3539747,14210000,cl01,67,210,Clackamas R at Estacada                 ,JUN-JUL VOLUME,bound_10_30_50_70_90,111,160,193,225,275,53,76,92,107,131,6,2010,20100607,OR
45.2998433,-122.3539747,14210000,cl01,69,318,Clackamas R at Estacada                 ,JUN-SEP VOLUME,bound_10_30_50_70_90,205,260,295,330,385,64,82,93,104,121,6,2010,20100607,OR
45.9517789,-122.56399,14220500,cl01,67,338,Lewis R at Ariel (2)                    ,JUN-JUL VOLUME,bound_10_30_50_70_90,270,310,340,370,410,80,92,101,109,121,6,2010,20100607,WA
45.9517789,-122.56399,14220500,cl01,69,483,Lewis R at Ariel (2)                    ,JUN-SEP VOLUME,bound_10_30_50_70_90,360,435,485,535,610,75,90,100,111,126,6,2010,20100607,WA
46.5103853,-122.6162239,14238000,cl01,67,-99.9,Cowlitz R bl Mayfield Dam (2)           ,JUN-JUL VOLUME,bound_10_30_50_70_90,490,595,665,735,840,-99.9,-99.9,-99.9,-99.9,-99.9,6,2010,20100607,WA
46.5103853,-122.6162239,14238000,cl01,69,938,Cowlitz R bl Mayfield Dam (2)           ,JUN-SEP VOLUME,bound_10_30_50_70_90,675,795,880,965,1080,72,85,94,103,115,6,2010,20100607,WA
46.2748333,-122.9145586,14243000,cl01,67,-99.9,Cowlitz R at Castle Rock (2)            ,JUN-JUL VOLUME,bound_10_30_50_70_90,745,835,900,965,1060,-99.9,-99.9,-99.9,-99.9,-99.9,6,2010,20100607,WA
46.2748333,-122.9145586,14243000,cl01,69,1259,Cowlitz R at Castle Rock (2)            ,JUN-SEP VOLUME,bound_10_30_50_70_90,1070,1170,1240,1310,1410,85,93,98,104,112,6,2010,20100607,WA
48.9846011,-119.6184097,12442500,cm01,67,735,Similkameen R nr Nighthawk (1)          ,JUN-JUL VOLUME,bound_05_30_50_70_95,370,480,530,580,690,50,65,72,79,94,6,2010,20100607,WA
48.9846011,-119.6184097,12442500,cm01,69,835,Similkameen R nr Nighthawk (1)          ,JUN-SEP VOLUME,bound_05_30_50_70_95,390,540,605,670,820,47,65,72,80,98,6,2010,20100607,WA
48.632375,-119.461723,12445000,cm01,67,860,Okanogan R nr Tonasket (1)              ,JUN-JUL VOLUME,bound_05_30_50_70_95,240,435,525,615,810,28,51,61,72,94,6,2010,20100607,WA
48.632375,-119.461723,12445000,cm01,69,1050,Okanogan R nr Tonasket (1)              ,JUN-SEP VOLUME,bound_05_30_50_70_95,290,530,640,750,990,28,50,61,71,94,6,2010,20100607,WA
48.28138889,-119.7033333,12447200,cm01,67,895,Okanogan R at Malott (1)                ,JUN-JUL VOLUME,bound_05_30_50_70_95,240,450,545,640,850,27,50,61,72,95,6,2010,20100607,WA
48.28138889,-119.7033333,12447200,cm01,69,1090,Okanogan R at Malott (1)                ,JUN-SEP VOLUME,bound_05_30_50_70_95,305,555,670,785,1040,28,51,61,72,95,6,2010,20100607,WA
48.0773639,-119.9850722,12449950,cm01,67,490,Methow R nr Pateros                     ,JUN-JUL VOLUME,bound_10_30_50_70_90,280,325,355,385,430,57,66,72,79,88,6,2010,20100607,WA
48.0773639,-119.9850722,12449950,cm01,69,560,Methow R nr Pateros                     ,JUN-SEP VOLUME,bound_10_30_50_70_90,315,370,405,440,495,56,66,72,79,88,6,2010,20100607,WA
48.3295803,-120.6917669,12451000,cm01,67,410,Stehekin R at Stehekin                  ,JUN-JUL VOLUME,bound_10_30_50_70_90,240,285,315,345,390,59,70,77,84,95,6,2010,20100607,WA
48.3295803,-120.6917669,12451000,cm01,69,535,Stehekin R at Stehekin                  ,JUN-SEP VOLUME,bound_10_30_50_70_90,335,380,410,440,485,63,71,77,82,91,6,2010,20100607,WA
47.8345808,-120.0131253,12452500,cm01,67,590,Chelan R at Chelan (2)                  ,JUN-JUL VOLUME,bound_10_30_50_70_90,460,495,520,545,580,78,84,88,92,98,6,2010,20100607,WA
47.8345808,-120.0131253,12452500,cm01,69,730,Chelan R at Chelan (2)                  ,JUN-SEP VOLUME,bound_10_30_50_70_90,575,615,640,665,705,79,84,88,91,97,6,2010,20100607,WA
47.8184617,-120.4231439,12452800,cm01,67,127,Entiat R nr Ardenvoir                   ,JUN-JUL VOLUME,bound_10_30_50_70_90,86,95,102,109,118,68,75,80,86,93,6,2010,20100607,WA
47.8184617,-120.4231439,12452800,cm01,69,149,Entiat R nr Ardenvoir                   ,JUN-SEP VOLUME,bound_10_30_50_70_90,98,111,119,127,140,66,74,80,85,94,6,2010,20100607,WA
47.7628994,-120.6662039,12457000,cm01,67,570,Wenatchee R at Plain                    ,JUN-JUL VOLUME,bound_10_30_50_70_90,350,405,440,475,530,61,71,77,83,93,6,2010,20100607,WA
47.7628994,-120.6662039,12457000,cm01,69,690,Wenatchee R at Plain                    ,JUN-SEP VOLUME,bound_10_30_50_70_90,430,490,530,570,630,62,71,77,83,91,6,2010,20100607,WA
47.5409539,-120.7200872,12458000,cm01,67,166,Icicle Ck nr Leavenworth                ,JUN-JUL VOLUME,bound_10_30_50_70_90,82,100,112,124,142,49,60,67,75,86,6,2010,20100607,WA
47.5409539,-120.7200872,12458000,cm01,69,195,Icicle Ck nr Leavenworth                ,JUN-SEP VOLUME,bound_10_30_50_70_90,95,117,131,145,167,49,60,67,74,86,6,2010,20100607,WA
47.5831778,-120.613975,12459000,cm01,67,785,Wenatchee R at Peshastin                ,JUN-JUL VOLUME,bound_10_30_50_70_90,455,530,580,630,705,58,68,74,80,90,6,2010,20100607,WA
47.5831778,-120.613975,12459000,cm01,69,935,Wenatchee R at Peshastin                ,JUN-SEP VOLUME,bound_10_30_50_70_90,545,630,690,750,835,58,67,74,80,89,6,2010,20100607,WA
47.3212242,-121.3362047,12474500,cm01,67,47,Keechelus Reservoir Inflow (2)          ,JUN-JUL VOLUME,bound_10_30_50_70_90,25,31,35,39,45,53,66,74,83,96,6,2010,20100607,WA
47.3212242,-121.3362047,12474500,cm01,69,59,Keechelus Reservoir Inflow (2)          ,JUN-SEP VOLUME,bound_10_30_50_70_90,31,39,44,49,57,53,66,75,83,97,6,2010,20100607,WA
47.2612261,-121.2034242,12476000,cm01,67,43,Kachess Reservoir Inflow (2)            ,JUN-JUL VOLUME,bound_10_30_50_70_90,25,28,31,34,37,58,65,72,79,86,6,2010,20100607,WA
47.2612261,-121.2034242,12476000,cm01,69,51,Kachess Reservoir Inflow (2)            ,JUN-SEP VOLUME,bound_10_30_50_70_90,29,34,37,40,45,57,67,73,78,88,6,2010,20100607,WA
47.2445622,-121.0678642,12479000,cm01,67,192,Cle Elum Lake Inflow (2)                ,JUN-JUL VOLUME,bound_10_30_50_70_90,98,127,147,167,196,51,66,77,87,102,6,2010,20100607,WA
47.2445622,-121.0678642,12479000,cm01,69,230,Cle Elum Lake Inflow (2)                ,JUN-SEP VOLUME,bound_10_30_50_70_90,116,152,176,200,235,50,66,77,87,102,6,2010,20100607,WA
47.1928975,-120.9498047,12479500,cm01,67,340,Yakima R at Cle Elum (2)                ,JUN-JUL VOLUME,bound_10_30_50_70_90,161,215,250,285,340,47,63,74,84,100,6,2010,20100607,WA
47.1928975,-120.9498047,12479500,cm01,69,420,Yakima R at Cle Elum (2)                ,JUN-SEP VOLUME,bound_10_30_50_70_90,193,265,310,355,425,46,63,74,85,101,6,2010,20100607,WA
47.2465092,-120.8611925,12480000,cm01,67,37,Teanaway R bl Forks nr Cle Elum         ,JUN-JUL VOLUME,bound_10_30_50_70_90,3.6,14,21,28,38,10,38,57,76,103,6,2010,20100607,WA
47.2465092,-120.8611925,12480000,cm01,69,40,Teanaway R bl Forks nr Cle Elum         ,JUN-SEP VOLUME,bound_10_30_50_70_90,5.5,15.9,23,30,41,14,40,58,75,102,6,2010,20100607,WA
46.8726139,-121.292586,12488000,cm01,67,61,Bumping Lake Inflow (2)                 ,JUN-JUL VOLUME,bound_10_30_50_70_90,50,57,62,67,74,82,93,102,110,121,6,2010,20100607,WA
46.8726139,-121.292586,12488000,cm01,69,72,Bumping Lake Inflow (2)                 ,JUN-SEP VOLUME,bound_10_30_50_70_90,61,68,73,78,85,85,94,101,108,118,6,2010,20100607,WA
46.9776161,-121.168696,12488500,cm01,67,54,American R nr Nile                      ,JUN-JUL VOLUME,bound_10_30_50_70_90,48,55,59,63,70,89,102,109,117,130,6,2010,20100607,WA
46.9776161,-121.168696,12488500,cm01,69,63,American R nr Nile                      ,JUN-SEP VOLUME,bound_10_30_50_70_90,55,63,68,73,81,87,100,108,116,129,6,2010,20100607,WA
46.6626175,-121.1248017,12491500,cm01,67,105,Rimrock Lake Inflow (2)                 ,JUN-JUL VOLUME,bound_10_30_50_70_90,84,93,100,107,116,80,89,95,102,110,6,2010,20100607,WA
46.6626175,-121.1248017,12491500,cm01,69,144,Rimrock Lake Inflow (2)                 ,JUN-SEP VOLUME,bound_10_30_50_70_90,119,129,136,143,153,83,90,94,99,106,6,2010,20100607,WA
46.7454017,-120.76924,12494000,cm01,67,315,Naches R nr Naches (2)                  ,JUN-JUL VOLUME,bound_10_30_50_70_90,265,305,330,355,395,84,97,105,113,125,6,2010,20100607,WA
46.7454017,-120.76924,12494000,cm01,69,375,Naches R nr Naches (2)                  ,JUN-SEP VOLUME,bound_10_30_50_70_90,320,365,395,425,470,85,97,105,113,125,6,2010,20100607,WA
46.53596,-120.4734,12502500,cm01,67,10.7,Ahtanum Ck at Union Gap                 ,JUN-JUL VOLUME,bound_10_30_50_70_90,8.3,10.4,11.8,13.2,15.3,78,97,110,123,143,6,2010,20100607,WA
46.53596,-120.4734,12502500,cm01,69,12.8,Ahtanum Ck at Union Gap                 ,JUN-SEP VOLUME,bound_10_30_50_70_90,10.3,12.6,14.1,15.6,17.9,80,98,110,122,140,6,2010,20100607,WA
46.4970717,-120.4428397,12505001,cm01,67,710,Yakima R nr Parker (2)                  ,JUN-JUL VOLUME,bound_10_30_50_70_90,500,575,625,675,750,70,81,88,95,106,6,2010,20100607,WA
46.4970717,-120.4428397,12505001,cm01,69,900,Yakima R nr Parker (2)                  ,JUN-SEP VOLUME,bound_10_30_50_70_90,640,730,790,850,940,71,81,88,94,104,6,2010,20100607,WA
45.8298572,-118.1699503,14010000,cm01,67,19.2,SF Walla Walla R nr Milton-Freewater    ,JUN-JUL VOLUME,bound_10_30_50_70_90,10.4,13.4,15.4,17.4,20,54,70,80,91,104,6,2010,20100607,OR
45.8298572,-118.1699503,14010000,cm01,69,33,SF Walla Walla R nr Milton-Freewater    ,JUN-SEP VOLUME,bound_10_30_50_70_90,19.5,23,26,29,32,59,70,79,88,97,6,2010,20100607,OR
46.00805556,-118.1175,14013000,cm01,67,6.76,Mill Ck nr Walla Walla                  ,JUN-JUL VOLUME,bound_10_30_50_70_90,3.2,4.5,5.4,6.3,7.6,47,67,80,93,112,6,2010,20100607,WA
46.00805556,-118.1175,14013000,cm01,69,10.4,Mill Ck nr Walla Walla                  ,JUN-SEP VOLUME,bound_10_30_50_70_90,5.9,7.4,8.4,9.4,10.9,57,71,81,90,105,6,2010,20100607,WA
45.7195767,-118.3232914,14020000,cm01,67,14.4,Umatilla R ab Meacham Ck nr Gibbon      ,JUN-JUL VOLUME,bound_10_30_50_70_90,6.2,9.5,11.7,13.9,17.2,43,66,81,97,119,6,2010,20100607,OR
45.7195767,-118.3232914,14020000,cm01,69,20,Umatilla R ab Meacham Ck nr Gibbon      ,JUN-SEP VOLUME,bound_10_30_50_70_90,10.4,13.9,16.2,18.5,22,52,70,81,92,110,6,2010,20100607,OR
45.672075,-118.7927636,14021000,cm01,67,23,Umatilla R at Pendleton                 ,JUN-JUL VOLUME,bound_10_30_50_70_90,3.1,12.2,18.3,24,33,13,53,80,104,143,6,2010,20100607,OR
45.672075,-118.7927636,14021000,cm01,69,29,Umatilla R at Pendleton                 ,JUN-SEP VOLUME,bound_10_30_50_70_90,7.4,16.7,23,29,39,26,58,79,100,134,6,2010,20100607,OR
45.5490186,-118.7744269,14022500,cm01,69,3.2,McKay Ck nr Pilot Rock                  ,JUN-SEP VOLUME,bound_10_30_50_70_90,0.47,2.3,3.5,4.7,6.5,15,72,109,147,203,6,2010,20100607,OR
45.5442903,-119.3122394,14032000,cm01,67,1.65,Butter Ck nr Pine City                  ,JUN-JUL VOLUME,bound_10_30_50_70_90,0.62,1.16,1.53,1.9,2.4,38,70,93,115,145,6,2010,20100607,OR
45.5442903,-119.3122394,14032000,cm01,69,2.08,Butter Ck nr Pine City                  ,JUN-SEP VOLUME,bound_10_30_50_70_90,0.94,1.57,2,2.4,3.1,45,75,96,115,149,6,2010,20100607,OR
45.34068289,-119.5158544,14034470,cm01,67,1.5,Willow Ck ab Willow Ck Lake nr Heppner  ,JUN-JUL VOLUME,bound_10_30_50_70_90,0.18,0.79,1.2,1.61,2.2,12,53,80,107,147,6,2010,20100607,OR
45.2612428,-119.6239108,14034800,cm01,67,1.49,Rhea Ck nr Heppner                      ,JUN-JUL VOLUME,bound_10_30_50_70_90,0.36,1.03,1.48,1.93,2.6,24,69,99,130,174,6,2010,20100607,OR
44.3415481,-118.65661,14037500,cm01,67,4.53,Strawberry Ck nr Prairie City           ,JUN-JUL VOLUME,bound_10_30_50_70_90,2.1,3.1,3.8,4.5,5.5,46,68,84,99,121,6,2010,20100607,OR
44.3415481,-118.65661,14037500,cm01,69,5.22,Strawberry Ck nr Prairie City           ,JUN-SEP VOLUME,bound_10_30_50_70_90,2.5,3.6,4.3,5,6.1,48,69,82,96,117,6,2010,20100607,OR
44.53486,-120.030278,14040600,cm01,67,0.91,Mountain Ck nr Mitchell                 ,JUN-JUL VOLUME,bound_10_30_50_70_90,0.12,0.42,0.63,0.84,1.14,13,46,69,92,125,6,2010,20100607,OR
44.53486,-120.030278,14040600,cm01,69,1.01,Mountain Ck nr Mitchell                 ,JUN-SEP VOLUME,bound_10_30_50_70_90,0.07,0.4,0.63,0.86,1.19,7,40,62,85,118,6,2010,20100607,OR
45.156805,-118.8205308,14042500,cm01,67,5.28,Camas Ck nr Ukiah                       ,JUN-JUL VOLUME,bound_10_30_50_70_90,0.18,2.3,3.8,5.3,7.4,3,44,72,100,140,6,2010,20100607,OR
45.156805,-118.8205308,14042500,cm01,69,6.02,Camas Ck nr Ukiah                       ,JUN-SEP VOLUME,bound_10_30_50_70_90,0.69,2.9,4.4,5.9,8.1,11,48,73,98,135,6,2010,20100607,OR
44.8887639,-119.1413686,14044000,cm01,67,29,MF John Day R at Ritter                 ,JUN-JUL VOLUME,bound_10_30_50_70_90,7,15.3,21,27,35,24,53,72,93,121,6,2010,20100607,OR
44.8887639,-119.1413686,14044000,cm01,69,34,MF John Day R at Ritter                 ,JUN-SEP VOLUME,bound_10_30_50_70_90,8.9,17.9,24,30,39,26,53,71,88,115,6,2010,20100607,OR
44.8137583,-119.4316564,14046000,cm01,67,136,NF John Day R at Monument               ,JUN-JUL VOLUME,bound_10_30_50_70_90,37,72,96,120,155,27,53,71,88,114,6,2010,20100607,OR
44.8137583,-119.4316564,14046000,cm01,69,154,NF John Day R at Monument               ,JUN-SEP VOLUME,bound_10_30_50_70_90,47,85,110,135,173,31,55,71,88,112,6,2010,20100607,OR
43.8140064,-121.7769742,14050000,cm01,67,19.5,Deschutes R bl Snow Ck nr La Pine       ,JUN-JUL VOLUME,bound_10_30_50_70_90,6.1,9.7,12.1,14.5,18.1,31,50,62,74,93,6,2010,20100607,OR
43.8140064,-121.7769742,14050000,cm01,69,45,Deschutes R bl Snow Ck nr La Pine       ,JUN-SEP VOLUME,bound_10_30_50_70_90,18.2,24,28,32,38,40,53,62,71,84,6,2010,20100607,OR
43.7553961,-121.7844733,14053500,cm01,67,34,Crane Prairie Reservoir Inflow (2)      ,JUN-JUL VOLUME,bound_10_30_50_70_90,14.6,18.4,21,24,27,43,54,62,71,79,6,2010,20100607,OR
43.7553961,-121.7844733,14053500,cm01,69,68,Crane Prairie Reservoir Inflow (2)      ,JUN-SEP VOLUME,bound_10_30_50_70_90,31,38,42,46,53,46,56,62,68,78,6,2010,20100607,OR
43.5029028,-121.973363,14060000,cm01,67,8,Crescent Ck nr Crescent (2)             ,JUN-JUL VOLUME,bound_10_30_50_70_90,0.63,2.8,4.3,5.8,8,8,35,54,72,100,6,2010,20100607,OR
43.5029028,-121.973363,14060000,cm01,69,11.7,Crescent Ck nr Crescent (2)             ,JUN-SEP VOLUME,bound_10_30_50_70_90,1.7,4.4,6.3,8.2,10.9,15,38,54,70,93,6,2010,20100607,OR
43.6890103,-121.502803,14063000,cm01,67,26,Little Deschutes R nr La Pine (2)       ,JUN-JUL VOLUME,bound_10_30_50_70_90,3,9,13,17,23,12,35,50,65,88,6,2010,20100607,OR
43.6890103,-121.502803,14063000,cm01,69,35,Little Deschutes R nr La Pine (2)       ,JUN-SEP VOLUME,bound_10_30_50_70_90,5.6,12.7,17.5,22,29,16,36,50,63,83,6,2010,20100607,OR
43.9301172,-121.4119747,14064500,cm01,67,177,Deschutes R at Benham Falls nr Bend (2) ,JUN-JUL VOLUME,bound_10_30_50_70_90,121,134,142,150,163,68,76,80,85,92,6,2010,20100607,OR
43.9301172,-121.4119747,14064500,cm01,69,355,Deschutes R at Benham Falls nr Bend (2) ,JUN-SEP VOLUME,bound_10_30_50_70_90,250,270,285,300,320,70,76,80,85,90,6,2010,20100607,OR
44.2337269,-121.5669878,14075000,cm01,67,24,Whychus Ck nr Sisters                   ,JUN-JUL VOLUME,bound_10_30_50_70_90,17,18.8,20,21,23,71,78,83,88,96,6,2010,20100607,OR
44.2337269,-121.5669878,14075000,cm01,69,36,Whychus Ck nr Sisters                   ,JUN-SEP VOLUME,bound_10_30_50_70_90,26,28,30,32,34,72,78,83,89,94,6,2010,20100607,OR
44.1137372,-120.79557,14080500,cm01,67,9.2,Prineville Reservoir Inflow (2)         ,JUN-JUL VOLUME,bound_10_30_50_70_90,1,2.5,6.9,11.3,17.8,11,27,75,123,193,6,2010,20100607,OR
44.1137372,-120.79557,14080500,cm01,69,10.1,Prineville Reservoir Inflow (2)         ,JUN-SEP VOLUME,bound_10_30_50_70_90,1.1,2.8,7.6,12.4,19.6,11,28,75,123,194,6,2010,20100607,OR
44.2984617,-120.7261297,14085100,cm01,67,2.9,Ochoco Reservoir Inflow (2)             ,JUN-JUL VOLUME,bound_10_30_50_70_90,0.3,1.2,2.7,4.8,7,10,41,93,166,241,6,2010,20100607,OR
44.2984617,-120.7261297,14085100,cm01,69,2.9,Ochoco Reservoir Inflow (2)             ,JUN-SEP VOLUME,bound_10_30_50_70_90,0.29,1.19,2.7,4.8,7,10,41,93,166,241,6,2010,20100607,OR
48.8935756,-115.0879458,12301300,cu01,67,62,TOBACCO RIVER nr Eureka                 ,JUN-JUL VOLUME,bound_10_30_50_70_90,26,37,44,51,62,42,60,71,82,100,6,2010,20100607,MT
48.8935756,-115.0879458,12301300,cu01,69,76,TOBACCO RIVER nr Eureka                 ,JUN-SEP VOLUME,bound_10_30_50_70_90,33,46,55,64,77,43,61,72,84,101,6,2010,20100607,MT
48.40079,-115.3207192,12301933,cu01,67,3440,LIBBY RES Inflow (12)                  ,JUN-JUL VOLUME,bound_05_30_50_70_95,1820,2290,2510,2730,3200,53,67,73,79,93,6,2010,20100607,MT
48.40079,-115.3207192,12301933,cu01,69,4440,LIBBY RES Inflow (12)                  ,JUN-SEP VOLUME,bound_05_30_50_70_95,2350,3000,3290,3580,4230,53,68,74,81,95,6,2010,20100607,MT
48.3555122,-115.314885,12302055,cu01,67,68,FISHER RIVER nr Libby                   ,JUN-JUL VOLUME,bound_10_30_50_70_90,24,36,44,52,64,35,53,65,76,94,6,2010,20100607,MT
48.3555122,-115.314885,12302055,cu01,69,84,FISHER RIVER nr Libby                   ,JUN-SEP VOLUME,bound_10_30_50_70_90,32,46,55,64,78,38,55,65,76,93,6,2010,20100607,MT
48.5618867,-115.97018,12304500,cu01,67,144,YAAK RIVER nr Troy                      ,JUN-JUL VOLUME,bound_10_30_50_70_90,38,64,82,100,126,26,44,57,69,88,6,2010,20100607,MT
48.5618867,-115.97018,12304500,cu01,69,166,YAAK RIVER nr Troy                      ,JUN-SEP VOLUME,bound_10_30_50_70_90,47,75,95,115,143,28,45,57,69,86,6,2010,20100607,MT
48.6177192,-116.0474072,12305000,cu01,67,3920,KOOTENAI at Leonia (12)                ,JUN-JUL VOLUME,bound_05_30_50_70_95,2100,2690,2960,3230,3820,54,69,76,82,97,6,2010,20100607,ID
48.6177192,-116.0474072,12305000,cu01,69,5000,KOOTENAI at Leonia (12)                ,JUN-SEP VOLUME,bound_05_30_50_70_95,2750,3470,3800,4130,4850,55,69,76,83,97,6,2010,20100607,ID
48.9993981,-116.1796447,12306500,cu01,67,145,MOYIE RIVER at Eastport                 ,JUN-JUL VOLUME,bound_10_30_50_70_90,49,75,93,111,137,34,52,64,77,94,6,2010,20100607,ID
48.9993981,-116.1796447,12306500,cu01,69,160,MOYIE RIVER at Eastport                 ,JUN-SEP VOLUME,bound_10_30_50_70_90,54,83,102,121,150,34,52,64,76,94,6,2010,20100607,ID
48.9610592,-116.5552139,12321000,cu01,67,50,SMITH CREEK                             ,JUN-JUL VOLUME,bound_10_30_50_70_90,8.4,20,28,36,48,17,40,56,72,96,6,2010,20100607,ID
48.9610592,-116.5552139,12321000,cu01,69,56,SMITH CREEK                             ,JUN-SEP VOLUME,bound_10_30_50_70_90,7.1,22,32,42,57,13,39,57,75,102,6,2010,20100607,ID
48.9971719,-116.5691039,12321500,cu01,67,46,BOUNDARY CREEK                          ,JUN-JUL VOLUME,bound_10_30_50_70_90,10.8,19.9,26,32,41,23,43,57,70,89,6,2010,20100607,ID
48.9971719,-116.5691039,12321500,cu01,69,52,BOUNDARY CREEK                          ,JUN-SEP VOLUME,bound_10_30_50_70_90,12.4,22,29,36,46,24,42,56,69,88,6,2010,20100607,ID
46.5196511,-112.7933758,12324590,cu01,67,32,LITTLE BLACKFOOT nr Garrison            ,JUN-JUL VOLUME,bound_10_30_50_70_90,24,32,38,44,52,75,100,119,138,162,6,2010,20100607,MT
46.5196511,-112.7933758,12324590,cu01,69,39,LITTLE BLACKFOOT nr Garrison            ,JUN-SEP VOLUME,bound_10_30_50_70_90,29,39,46,53,63,74,100,118,136,162,6,2010,20100607,MT
46.2329806,-113.2997833,12325500,cu01,67,7.7,FLINT CREEK nr Southern Cross           ,JUN-JUL VOLUME,bound_10_30_50_70_90,1.41,3.2,4.5,5.8,7.6,18,42,58,75,99,6,2010,20100607,MT
46.2329806,-113.2997833,12325500,cu01,69,10.2,FLINT CREEK nr Southern Cross           ,JUN-SEP VOLUME,bound_10_30_50_70_90,1.9,4.3,5.9,7.5,9.9,19,42,58,74,97,6,2010,20100607,MT
46.4890936,-113.2370097,12330100,cu01,67,33,FLINT CREEK blw Boulder Ck              ,JUN-JUL VOLUME,bound_10_30_50_70_90,13.7,21,26,31,38,42,64,79,94,115,6,2010,20100607,MT
46.4890936,-113.2370097,12330100,cu01,69,48,FLINT CREEK blw Boulder Ck              ,JUN-SEP VOLUME,bound_10_30_50_70_90,22,32,38,44,54,46,67,79,92,112,6,2010,20100607,MT
46.5591,-113.3131,12330900,cu01,67,4.3,LOWER WILLOW CK RES Inflow              ,JUN-JUL VOLUME,bound_10_30_50_70_90,1.07,1.9,2.6,3.4,4.8,25,44,60,79,112,6,2010,20100607,MT
46.5591,-113.3131,12330900,cu01,69,5.3,LOWER WILLOW CK RES Inflow              ,JUN-SEP VOLUME,bound_10_30_50_70_90,1.53,2.5,3.3,4.2,5.7,29,47,62,79,108,6,2010,20100607,MT
46.1949233,-113.5009044,12332000,cu01,67,39,MF ROCK CREEK nr Philipsburg            ,JUN-JUL VOLUME,bound_10_30_50_70_90,24,30,34,38,44,62,77,87,97,113,6,2010,20100607,MT
46.1949233,-113.5009044,12332000,cu01,69,47,MF ROCK CREEK nr Philipsburg            ,JUN-SEP VOLUME,bound_10_30_50_70_90,29,36,41,46,53,62,77,87,98,113,6,2010,20100607,MT
46.7224269,-113.68315,12334510,cu01,67,148,Rock Ck Nr Clinton                      ,JUN-JUL VOLUME,bound_10_30_50_70_90,68,96,115,134,162,46,65,78,91,109,6,2010,20100607,MT
46.7224269,-113.68315,12334510,cu01,69,183,Rock Ck Nr Clinton                      ,JUN-SEP VOLUME,bound_10_30_50_70_90,87,120,143,166,199,48,66,78,91,109,6,2010,20100607,MT
46.7782694,-112.7675439,12335500,cu01,67,7,NEVADA CREEK nr Helmville               ,JUN-JUL VOLUME,bound_10_30_50_70_90,2.2,3.6,4.6,5.6,7,31,51,66,80,100,6,2010,20100607,MT
46.7782694,-112.7675439,12335500,cu01,69,8.5,NEVADA CREEK nr Helmville               ,JUN-SEP VOLUME,bound_10_30_50_70_90,2.8,4.4,5.5,6.6,8.2,33,52,65,78,96,6,2010,20100607,MT
46.89965,-113.7564872,12340000,cu01,67,380,BLACKFOOT RIVER nr Bonner               ,JUN-JUL VOLUME,bound_10_30_50_70_90,162,210,245,280,330,43,55,64,74,87,6,2010,20100607,MT
46.89965,-113.7564872,12340000,cu01,69,470,BLACKFOOT RIVER nr Bonner               ,JUN-SEP VOLUME,bound_10_30_50_70_90,210,265,300,335,390,45,56,64,71,83,6,2010,20100607,MT
46.8683,-113.8882,12340400,cu01,67,315,CLARK FORK abv Milltown                 ,JUN-JUL VOLUME,bound_10_30_50_70_90,140,210,255,300,370,44,67,81,95,117,6,2010,20100607,MT
46.8683,-113.8882,12340400,cu01,69,410,CLARK FORK abv Milltown                 ,JUN-SEP VOLUME,bound_10_30_50_70_90,186,270,330,390,475,45,66,80,95,116,6,2010,20100607,MT
46.8771469,-113.9323286,12340500,cu01,67,695,CLARK FORK abv Missoula                 ,JUN-JUL VOLUME,bound_10_30_50_70_90,335,430,500,570,665,48,62,72,82,96,6,2010,20100607,MT
46.8771469,-113.9323286,12340500,cu01,69,880,CLARK FORK abv Missoula                 ,JUN-SEP VOLUME,bound_10_30_50_70_90,430,555,635,715,840,49,63,72,81,95,6,2010,20100607,MT
45.7249181,-114.281475,12342500,cu01,67,69,WF BITTERROOT nr Conner (2)             ,JUN-JUL VOLUME,bound_10_30_50_70_90,33,41,47,53,61,48,59,68,77,88,6,2010,20100607,MT
45.7249181,-114.281475,12342500,cu01,69,82,WF BITTERROOT nr Conner (2)             ,JUN-SEP VOLUME,bound_10_30_50_70_90,36,48,56,64,76,44,59,68,78,93,6,2010,20100607,MT
45.9721425,-114.1414742,12344000,cu01,67,240,BITTERROOT nr Darby                     ,JUN-JUL VOLUME,bound_10_30_50_70_90,144,165,180,195,215,60,69,75,81,90,6,2010,20100607,MT
45.9721425,-114.1414742,12344000,cu01,69,295,BITTERROOT nr Darby                     ,JUN-SEP VOLUME,bound_10_30_50_70_90,174,200,220,240,265,59,68,75,81,90,6,2010,20100607,MT
46.0611,-114.2333,12345000,cu01,67,40,COMO RESERVOIR Inflow                   ,JUN-JUL VOLUME,bound_10_30_50_70_90,16.7,23,28,33,39,42,58,70,82,98,6,2010,20100607,MT
46.0611,-114.2333,12345000,cu01,69,44,COMO RESERVOIR Inflow                   ,JUN-SEP VOLUME,bound_10_30_50_70_90,18.6,26,31,36,43,42,59,70,82,98,6,2010,20100607,MT
46.8379789,-114.1059453,12352800,cu01,67,690,BITTERROOT at Missoula                  ,JUN-JUL VOLUME,bound_10_30_50_70_90,365,435,485,535,605,53,63,70,78,88,6,2010,20100607,MT
46.8379789,-114.1059453,12352800,cu01,69,800,BITTERROOT at Missoula                  ,JUN-SEP VOLUME,bound_10_30_50_70_90,405,495,560,625,715,51,62,70,78,89,6,2010,20100607,MT
46.8690897,-114.1267794,12353000,cu01,67,1380,CLARK FORK blw Missoula                 ,JUN-JUL VOLUME,bound_10_30_50_70_90,730,885,985,1090,1240,53,64,71,79,90,6,2010,20100607,MT
46.8690897,-114.1267794,12353000,cu01,69,1680,CLARK FORK blw Missoula                 ,JUN-SEP VOLUME,bound_10_30_50_70_90,855,1050,1190,1330,1530,51,62,71,79,91,6,2010,20100607,MT
47.3018744,-115.0873606,12354500,cu01,67,1770,CLARK FORK at St. Regis (1)             ,JUN-JUL VOLUME,bound_05_30_50_70_95,845,1140,1270,1400,1690,48,64,72,79,95,6,2010,20100607,MT
47.3018744,-115.0873606,12354500,cu01,69,2160,CLARK FORK at St. Regis (1)             ,JUN-SEP VOLUME,bound_05_30_50_70_95,1020,1380,1550,1720,2080,47,64,72,80,96,6,2010,20100607,MT
48.4955219,-114.1276244,12355500,cu01,67,830,NF FLATHEAD nr Columbia Falls           ,JUN-JUL VOLUME,bound_10_30_50_70_90,585,705,785,865,985,70,85,95,104,119,6,2010,20100607,MT
48.4955219,-114.1276244,12355500,cu01,69,1000,NF FLATHEAD nr Columbia Falls           ,JUN-SEP VOLUME,bound_10_30_50_70_90,725,860,950,1040,1180,72,86,95,104,118,6,2010,20100607,MT
48.4952442,-114.0101189,12358500,cu01,67,825,MF FLATHEAD nr West Glacier             ,JUN-JUL VOLUME,bound_10_30_50_70_90,510,605,665,725,820,62,73,81,88,99,6,2010,20100607,MT
48.4952442,-114.0101189,12358500,cu01,69,975,MF FLATHEAD nr West Glacier             ,JUN-SEP VOLUME,bound_10_30_50_70_90,620,720,790,860,960,64,74,81,88,98,6,2010,20100607,MT
47.98333,-113.56667,12359800,cu01,67,629,SF FLATHEAD R Nr Hungry Horse           ,JUN-JUL VOLUME,bound_10_30_50_70_90,510,555,585,615,660,81,88,93,98,105,6,2010,20100607,MT
47.98333,-113.56667,12359800,cu01,69,711,SF FLATHEAD R Nr Hungry Horse           ,JUN-SEP VOLUME,bound_10_30_50_70_90,570,625,660,695,750,80,88,93,98,105,6,2010,20100607,MT
48.3566308,-114.037618,12362500,cu01,67,960,HUNGRY HORSE Reservoir Inflow (12)     ,JUN-JUL VOLUME,bound_05_30_50_70_95,710,840,895,950,1080,74,88,93,99,112,6,2010,20100607,MT
48.3566308,-114.037618,12362500,cu01,69,1090,HUNGRY HORSE Reservoir Inflow (12)     ,JUN-SEP VOLUME,bound_05_30_50_70_95,795,945,1010,1080,1230,73,87,93,99,113,6,2010,20100607,MT
48.3619086,-114.1848483,12363000,cu01,67,2690,FLATHEAD at Columbia Falls (2)          ,JUN-JUL VOLUME,bound_10_30_50_70_90,1820,2100,2300,2500,2780,68,78,86,93,103,6,2010,20100607,MT
48.3619086,-114.1848483,12363000,cu01,69,3160,FLATHEAD at Columbia Falls (2)          ,JUN-SEP VOLUME,bound_10_30_50_70_90,2170,2500,2720,2940,3270,69,79,86,93,103,6,2010,20100607,MT
48.1803,-114.6175,12367100,cu01,67,1.61,ASHLEY CREEK nr Marion (2)              ,JUN-JUL VOLUME,bound_10_30_50_70_90,0.08,0.17,0.7,1.23,2,5,11,43,76,124,6,2010,20100607,MT
48.1803,-114.6175,12367100,cu01,69,1.1,ASHLEY CREEK nr Marion (2)              ,JUN-SEP VOLUME,bound_10_30_50_70_90,0.09,0.25,0.5,1.33,2,8,23,45,121,182,6,2010,20100607,MT
48.0243961,-113.9798289,12370000,cu01,67,305,SWAN RIVER nr Bigfork                   ,JUN-JUL VOLUME,bound_10_30_50_70_90,285,315,335,355,385,93,103,110,116,126,6,2010,20100607,MT
48.0243961,-113.9798289,12370000,cu01,69,385,SWAN RIVER nr Bigfork                   ,JUN-SEP VOLUME,bound_10_30_50_70_90,365,400,425,450,485,95,104,110,117,126,6,2010,20100607,MT
47.6802158,-114.246788,12372000,cu01,67,3100,FLATHEAD LAKE Inflow (12)              ,JUN-JUL VOLUME,bound_05_30_50_70_95,1910,2430,2660,2890,3410,62,78,86,93,110,6,2010,20100607,MT
47.6802158,-114.246788,12372000,cu01,69,3620,FLATHEAD LAKE Inflow (12)              ,JUN-SEP VOLUME,bound_05_30_50_70_95,2220,2830,3110,3390,4000,61,78,86,94,110,6,2010,20100607,MT
47.83333,-114.7,12374250,cu01,67,1.26,MILL CREEK nr Niarada                   ,JUN-JUL VOLUME,bound_10_30_50_70_90,0.39,0.69,0.9,1.11,1.41,31,55,71,88,112,6,2010,20100607,MT
47.83333,-114.7,12374250,cu01,69,1.6,MILL CREEK nr Niarada                   ,JUN-SEP VOLUME,bound_10_30_50_70_90,0.58,0.92,1.15,1.38,1.72,36,58,72,86,108,6,2010,20100607,MT
47.5,-111.03333,12375900,cu01,67,6.19,South Crow Ck nr Ronan                  ,JUN-JUL VOLUME,bound_10_30_50_70_90,5.4,6.5,7.2,7.9,9,87,105,116,128,145,6,2010,20100607,MT
47.5,-111.03333,12375900,cu01,69,7.61,South Crow Ck nr Ronan                  ,JUN-SEP VOLUME,bound_10_30_50_70_90,6.7,7.9,8.7,9.5,10.7,88,104,114,125,141,6,2010,20100607,MT
47.31667,-113.98333,12377150,cu01,67,17.2,Mission Ck nr St. Ignatius              ,JUN-JUL VOLUME,bound_10_30_50_70_90,13.3,15.2,16.5,17.8,19.7,77,88,96,103,115,6,2010,20100607,MT
47.31667,-113.98333,12377150,cu01,69,22.1,Mission Ck nr St. Ignatius              ,JUN-SEP VOLUME,bound_10_30_50_70_90,16.6,19.2,21,23,25,75,87,95,104,113,6,2010,20100607,MT
47.2,-113.85,12381400,cu01,67,14.2,SF Jocko R nr Arlee                     ,JUN-JUL VOLUME,bound_10_30_50_70_90,14.5,17.8,20,22,25,102,125,141,155,176,6,2010,20100607,MT
47.2,-113.85,12381400,cu01,69,18,SF Jocko R nr Arlee                     ,JUN-SEP VOLUME,bound_10_30_50_70_90,19.2,23,25,27,31,107,128,139,150,172,6,2010,20100607,MT
48.22264,-11383097,12381410,cu01,67,14.4,NF JOCKO RIVER bl Tabor Canal           ,JUN-JUL VOLUME,bound_10_30_50_70_90,11.1,13,14.4,15.8,17.7,77,90,100,110,123,6,2010,20100607,MT
48.22264,-11383097,12381410,cu01,69,16.3,NF JOCKO RIVER bl Tabor Canal           ,JUN-SEP VOLUME,bound_10_30_50_70_90,12.4,14.5,15.9,17.3,19.4,76,89,98,106,119,6,2010,20100607,MT
47.4296569,-114.8559664,12389000,cu01,67,5100,CLARK FORK nr Plains (12)              ,JUN-JUL VOLUME,bound_05_30_50_70_95,2990,3750,4090,4430,5190,59,74,80,87,102,6,2010,20100607,MT
47.4296569,-114.8559664,12389000,cu01,69,6090,CLARK FORK nr Plains (12)              ,JUN-SEP VOLUME,bound_05_30_50_70_95,3460,4430,4870,5310,6280,57,73,80,87,103,6,2010,20100607,MT
47.5918806,-115.229593,12389500,cu01,67,82,THOMPSON nr Thompson Falls              ,JUN-JUL VOLUME,bound_10_30_50_70_90,19,30,37,44,55,23,37,45,54,67,6,2010,20100607,MT
47.5918806,-115.229593,12389500,cu01,69,108,THOMPSON nr Thompson Falls              ,JUN-SEP VOLUME,bound_10_30_50_70_90,27,40,49,58,71,25,37,45,54,66,6,2010,20100607,MT
47.5860461,-115.355153,12390700,cu01,67,41,PROSPECT CREEK at Thompson Falls        ,JUN-JUL VOLUME,bound_10_30_50_70_90,12.2,16,18.6,21,25,30,39,45,51,61,6,2010,20100607,MT
47.5860461,-115.355153,12390700,cu01,69,50,PROSPECT CREEK at Thompson Falls        ,JUN-SEP VOLUME,bound_10_30_50_70_90,15.1,19.2,22,25,29,30,38,44,50,58,6,2010,20100607,MT
48.0915928,-116.117675,12392000,cu01,67,5620,CLARK FK at Whitehorse Rpds (12)       ,JUN-JUL VOLUME,bound_05_30_50_70_95,3350,4170,4550,4930,5750,60,74,81,88,102,6,2010,20100607,ID
48.0915928,-116.117675,12392000,cu01,69,6750,CLARK FK at Whitehorse Rpds (12)       ,JUN-SEP VOLUME,bound_05_30_50_70_95,3950,4990,5460,5930,6970,59,74,81,88,103,6,2010,20100607,ID
48.20852,-116.914643,12395000,cu01,67,290,PRIEST near Priest River (12)          ,JUN-JUL VOLUME,bound_05_30_50_70_95,182,230,250,270,320,63,79,86,93,110,6,2010,20100607,ID
48.20852,-116.914643,12395000,cu01,69,345,PRIEST near Priest River (12)          ,JUN-SEP VOLUME,bound_05_30_50_70_95,210,270,295,320,380,61,78,86,93,110,6,2010,20100607,ID
48.1832392,-117.0343689,12395500,cu01,67,6120,PEND OREILLE Lake Inflow (2)            ,JUN-JUL VOLUME,bound_10_30_50_70_90,3830,4460,4890,5320,5950,63,73,80,87,97,6,2010,20100607,ID
48.1832392,-117.0343689,12395500,cu01,69,7280,PEND OREILLE Lake Inflow (2)            ,JUN-SEP VOLUME,bound_10_30_50_70_90,4490,5280,5820,6360,7150,62,73,80,87,98,6,2010,20100607,ID
48.7810272,-117.4163558,12396500,cu01,67,6190,PEND OREILLE bl Box Canyon (2)          ,JUN-JUL VOLUME,bound_10_30_50_70_90,4577,4954,5210,5466,5843,74,80,84,88,94,6,2010,20100607,WA
48.7810272,-117.4163558,12396500,cu01,69,7370,PEND OREILLE bl Box Canyon (2)          ,JUN-SEP VOLUME,bound_10_30_50_70_90,5412,5875,6190,6505,6968,73,80,84,88,95,6,2010,20100607,WA
48.9843486,-118.2163989,12404500,cu01,67,780,KETTLE near Laurier                     ,JUN-JUL VOLUME,bound_10_30_50_70_90,270,390,470,550,670,35,50,60,71,86,6,2010,20100607,WA
48.9843486,-118.2163989,12404500,cu01,69,880,KETTLE near Laurier                     ,JUN-SEP VOLUME,bound_10_30_50_70_90,290,435,530,625,770,33,49,60,71,88,6,2010,20100607,WA
48.5943461,-118.0624886,12409000,cu01,67,35,COLVILLE at Kettle Falls                ,JUN-JUL VOLUME,bound_10_30_50_70_90,19.3,27,33,39,47,55,77,94,111,134,6,2010,20100607,WA
48.5943461,-118.0624886,12409000,cu01,69,48,COLVILLE at Kettle Falls                ,JUN-SEP VOLUME,bound_10_30_50_70_90,28,38,45,52,62,58,79,94,108,129,6,2010,20100607,WA
47.56888889,-116.2533333,12413000,cu01,67,159,NF COEUR D'ALENE RIVER at Enaville      ,JUN-JUL VOLUME,bound_10_30_50_70_90,61,86,104,122,147,38,54,65,77,92,6,2010,20100607,ID
47.56888889,-116.2533333,12413000,cu01,69,198,NF COEUR D'ALENE RIVER at Enaville      ,JUN-SEP VOLUME,bound_10_30_50_70_90,78,109,129,149,180,39,55,65,75,91,6,2010,20100607,ID
47.2749178,-116.1884936,12414500,cu01,67,380,ST. JOE at Calder                       ,JUN-JUL VOLUME,bound_10_30_50_70_90,103,167,210,255,315,27,44,55,67,83,6,2010,20100607,ID
47.2749178,-116.1884936,12414500,cu01,69,450,ST. JOE at Calder                       ,JUN-SEP VOLUME,bound_10_30_50_70_90,138,205,250,295,360,31,46,56,66,80,6,2010,20100607,ID
47.7029575,-116.9779747,12419000,cu01,67,675,SPOKANE near Post Falls (2)             ,JUN-JUL VOLUME,bound_10_30_50_70_90,235,320,380,440,525,35,47,56,65,78,6,2010,20100607,ID
47.7029575,-116.9779747,12419000,cu01,69,775,SPOKANE near Post Falls (2)             ,JUN-SEP VOLUME,bound_10_30_50_70_90,230,345,425,505,620,30,45,55,65,80,6,2010,20100607,ID
47.8365533,-117.8413478,12433000,cu01,67,840,SPOKANE at Long Lake (2)                ,JUN-JUL VOLUME,bound_10_30_50_70_90,365,460,525,590,685,43,55,62,70,82,6,2010,20100607,WA
47.8365533,-117.8413478,12433000,cu01,69,1060,SPOKANE at Long Lake (2)                ,JUN-SEP VOLUME,bound_10_30_50_70_90,447,580,670,760,893,42,55,63,72,84,6,2010,20100607,WA
47.8615533,-117.8588497,12433200,cu01,78,3.5,CHAMOKANE CREEK near Long Lake          ,JUL-AUG VOLUME,bound_10_30_50_70_90,2.6,3.1,3.4,3.7,4.2,74,89,97,106,120,6,2010,20100607,WA
43.0188292,-110.1182206,09188500,gr01,47,265,Green River at Warren Bridge            ,APR-JUL VOLUME,bound_10_30_50_70_90,124,137,146,155,170,47,52,55,58,64,6,2010,20100607,WY
43.0188292,-110.1182206,09188500,gr01,67,186,Green River at Warren Bridge            ,JUN-JUL VOLUME,bound_10_30_50_70_90,93,106,115,124,139,50,57,62,67,75,6,2010,20100607,WY
43.0305017,-109.7701525,09196500,gr01,47,104,Pine Creek abv Fremont Lake             ,APR-JUL VOLUME,bound_10_30_50_70_90,45,53,58,64,72,43,51,56,62,69,6,2010,20100607,WY
43.0305017,-109.7701525,09196500,gr01,67,84,Pine Creek abv Fremont Lake             ,JUN-JUL VOLUME,bound_10_30_50_70_90,34,42,47,53,61,40,50,56,63,73,6,2010,20100607,WY
42.5671661,-109.9301511,09205000,gr01,47,395,New Fork River nr Big Piney             ,APR-JUL VOLUME,bound_10_30_50_70_90,163,190,210,230,265,41,48,53,58,67,6,2010,20100607,WY
42.5671661,-109.9301511,09205000,gr01,67,293,New Fork River nr Big Piney             ,JUN-JUL VOLUME,bound_10_30_50_70_90,133,160,180,200,235,45,55,61,68,80,6,2010,20100607,WY
42.0332814,-110.0673764,09211150,gr01,47,860,Fontenelle Reservoir Inflow             ,APR-JUL VOLUME,bound_10_30_50_70_90,315,370,410,455,520,37,43,48,53,60,6,2010,20100607,WY
42.0332814,-110.0673764,09211150,gr01,67,570,Fontenelle Reservoir Inflow             ,JUN-JUL VOLUME,bound_10_30_50_70_90,215,270,310,355,420,38,47,54,62,74,6,2010,20100607,WY
42.316895,-109.4856867,09213500,gr01,47,58,Big Sandy River nr Farson               ,APR-JUL VOLUME,bound_10_30_50_70_90,24,29,33,37,44,41,50,57,64,76,6,2010,20100607,WY
42.316895,-109.4856867,09213500,gr01,67,39,Big Sandy River nr Farson               ,JUN-JUL VOLUME,bound_10_30_50_70_90,15,20,24,28,35,38,51,62,72,90,6,2010,20100607,WY
41.5163536,-109.4490233,09217000,gr01,47,875,Green River nr Green River WY (2)      ,APR-JUL VOLUME,bound_10_30_50_70_90,305,365,415,465,550,35,42,47,53,63,6,2010,20100607,WY
41.5163536,-109.4490233,09217000,gr01,67,580,Green River nr Green River WY (2)      ,JUN-JUL VOLUME,bound_10_30_50_70_90,205,265,315,365,450,35,46,54,63,78,6,2010,20100607,WY
40.9591131,-110.5801656,09217900,gr01,47,95,Blacks Fork nr Robertson                ,APR-JUL VOLUME,bound_10_30_50_70_90,55,63,69,75,85,58,66,73,79,89,6,2010,20100607,WY
40.9591131,-110.5801656,09217900,gr01,67,67,Blacks Fork nr Robertson                ,JUN-JUL VOLUME,bound_10_30_50_70_90,41,49,55,61,71,61,73,82,91,106,6,2010,20100607,WY
41.0541144,-110.3984925,09220000,gr01,47,29,EF of Smiths Fork nr Robertson (2)      ,APR-JUL VOLUME,bound_10_30_50_70_90,15.2,18.5,21,24,28,52,64,72,83,97,6,2010,20100607,WY
41.0541144,-110.3984925,09220000,gr01,67,21,EF of Smiths Fork nr Robertson (2)      ,JUN-JUL VOLUME,bound_10_30_50_70_90,10.7,14,16.5,19.2,24,51,67,79,91,114,6,2010,20100607,WY
42.1104939,-110.7096211,09223000,gr01,47,65,Hams Fk blw Pole Ck nr Frontier         ,APR-JUL VOLUME,bound_10_30_50_70_90,31,35,38,41,46,48,54,58,63,71,6,2010,20100607,WY
42.1104939,-110.7096211,09223000,gr01,67,33,Hams Fk blw Pole Ck nr Frontier         ,JUN-JUL VOLUME,bound_10_30_50_70_90,14.3,18.2,21,24,29,43,55,64,73,88,6,2010,20100607,WY
42.0098,-110.6705,09223100,gr01,47,89,Hams Fork Inf to Viva Naughton Res      ,APR-JUL VOLUME,bound_10_30_50_70_90,40,45,50,55,64,45,51,56,62,72,6,2010,20100607,WY
42.0098,-110.6705,09223100,gr01,67,36.6,Hams Fork Inf to Viva Naughton Res      ,JUN-JUL VOLUME,bound_10_30_50_70_90,14.2,20,25,30,39,39,55,68,82,107,6,2010,20100607,WY
40.9063486,-109.421525,09234400,gr01,47,1190,Flaming Gorge Reservoir Inflow (2)      ,APR-JUL VOLUME,bound_10_30_50_70_90,415,505,575,650,770,35,42,48,55,65,6,2010,20100607,UT
40.9063486,-109.421525,09234400,gr01,67,730,Flaming Gorge Reservoir Inflow (2)      ,JUN-JUL VOLUME,bound_10_30_50_70_90,250,340,410,485,605,34,47,56,66,83,6,2010,20100607,UT
40.4835881,-106.8322714,09239500,gr01,47,280,Yampa River at Steamboat Springs        ,APR-JUL VOLUME,bound_10_30_50_70_90,154,170,181,193,210,55,61,65,69,75,6,2010,20100607,CO
40.4835881,-106.8322714,09239500,gr01,67,138,Yampa River at Steamboat Springs        ,JUN-JUL VOLUME,bound_10_30_50_70_90,58,74,85,97,116,42,54,62,70,84,6,2010,20100607,CO
40.2691481,-106.8808808,09237450,gr01,47,37,Yampa R ab Stagecoach Reservoir         ,APR-JUL VOLUME,bound_10_30_50_70_90,16.8,18.6,20,22,24,45,50,54,59,65,6,2010,20100607,CO
40.2691481,-106.8808808,09237450,gr01,67,17.3,Yampa R ab Stagecoach Reservoir         ,JUN-JUL VOLUME,bound_10_30_50_70_90,5.6,7.4,8.8,10.4,13,32,43,51,60,75,6,2010,20100607,CO
40.5146975,-106.9539406,09242500,gr01,47,325,Elk River nr Milner                     ,APR-JUL VOLUME,bound_10_30_50_70_90,285,305,325,340,370,88,94,100,105,114,6,2010,20100607,CO
40.5146975,-106.9539406,09242500,gr01,67,158,Elk River nr Milner                     ,JUN-JUL VOLUME,bound_10_30_50_70_90,101,123,140,158,186,64,78,89,100,118,6,2010,20100607,CO
40.6696939,-107.2850592,09245000,gr01,47,39,Elkhead Creek nr Elkhead                ,APR-JUL VOLUME,bound_10_30_50_70_90,38,41,42,44,48,97,105,108,113,123,6,2010,20100607,CO
40.6696939,-107.2850592,09245000,gr01,67,8.4,Elkhead Creek nr Elkhead                ,JUN-JUL VOLUME,bound_10_30_50_70_90,3.5,5.6,7.3,9.2,12.5,42,67,87,110,149,6,2010,20100607,CO
40.5419164,-107.3978394,09246400,gr01,47,59,Elkhead Creek blw Maynard Gulch (2)     ,APR-JUL VOLUME,bound_10_30_50_70_90,62,65,68,71,76,105,110,115,120,129,6,2010,20100607,CO
40.5419164,-107.3978394,09246400,gr01,67,12,Elkhead Creek blw Maynard Gulch (2)     ,JUN-JUL VOLUME,bound_10_30_50_70_90,5.9,9.2,11.8,14.8,19.7,49,77,98,123,164,6,2010,20100607,CO
40.7438578,-107.5408994,09246920,gr01,36,7.5,Fortification Ck nr Fortification       ,MAR-JUN VOLUME,bound_10_30_50_70_90,8.8,9.2,9.6,10.19,11.4,117,123,128,136,152,6,2010,20100607,CO
40.7438578,-107.5408994,09246920,gr01,66,1.35,Fortification Ck nr Fortification       ,JUNE-VOLUME,bound_10_30_50_70_90,0.2,0.58,1,1.59,2.8,15,43,74,118,207,6,2010,20100607,CO
40.5027467,-108.0298039,09251000,gr01,47,990,Yampa River Near Maybell                ,APR-JUL VOLUME,bound_10_30_50_70_90,740,795,835,880,950,75,80,84,89,96,6,2010,20100607,CO
40.5027467,-108.0298039,09251000,gr01,67,440,Yampa River Near Maybell                ,JUN-JUL VOLUME,bound_10_30_50_70_90,255,310,350,395,465,58,70,80,90,106,6,2010,20100607,CO
40.9994106,-107.143388,09253000,gr01,47,159,Little Snake River nr Slater            ,APR-JUL VOLUME,bound_10_30_50_70_90,154,167,176,186,200,97,105,111,117,126,6,2010,20100607,CO
40.9994106,-107.143388,09253000,gr01,67,71,Little Snake River nr Slater            ,JUN-JUL VOLUME,bound_10_30_50_70_90,58,71,80,90,106,82,100,113,127,149,6,2010,20100607,CO
41.0282981,-107.5492328,09257000,gr01,47,330,Little Snake River nr Dixon             ,APR-JUL VOLUME,bound_10_30_50_70_90,265,320,365,410,485,80,97,111,124,147,6,2010,20100607,WY
41.0282981,-107.5492328,09257000,gr01,67,133,Little Snake River nr Dixon             ,JUN-JUL VOLUME,bound_10_30_50_70_90,98,129,152,177,220,74,97,114,133,165,6,2010,20100607,WY
40.5471892,-108.4242647,09260000,gr01,47,365,Little Snake River nr Lily              ,APR-JUL VOLUME,bound_10_30_50_70_90,345,380,405,435,480,95,104,111,119,132,6,2010,20100607,CO
40.5471892,-108.4242647,09260000,gr01,67,148,Little Snake River nr Lily              ,JUN-JUL VOLUME,bound_10_30_50_70_90,109,144,170,199,245,74,97,115,134,166,6,2010,20100607,CO
40.033585,-107.8622947,09304500,gr01,47,290,White River nr Meeker                   ,APR-JUL VOLUME,bound_10_30_50_70_90,190,205,220,230,250,66,71,76,79,86,6,2010,20100607,CO
40.033585,-107.8622947,09304500,gr01,67,160,White River nr Meeker                   ,JUN-JUL VOLUME,bound_10_30_50_70_90,78,95,107,120,140,49,59,67,75,88,6,2010,20100607,CO
40.5888483,-109.4654139,09261700,gr01,47,21,Big Brush Ck abv Red Fleet Resv         ,APR-JUL VOLUME,bound_10_30_50_70_90,13.2,14.8,16,17.3,19.5,63,70,76,82,93,6,2010,20100607,UT
40.5888483,-109.4654139,09261700,gr01,67,10.1,Big Brush Ck abv Red Fleet Resv         ,JUN-JUL VOLUME,bound_10_30_50_70_90,4.1,5.7,6.9,8.2,10.4,41,56,68,81,103,6,2010,20100607,UT
40.5774581,-109.6220858,09266500,gr01,47,52,Ashley Creek nr Vernal                  ,APR-JUL VOLUME,bound_10_30_50_70_90,19.4,24,27,31,37,37,46,52,60,71,6,2010,20100607,UT
40.5774581,-109.6220858,09266500,gr01,67,27.7,Ashley Creek nr Vernal                  ,JUN-JUL VOLUME,bound_10_30_50_70_90,10,14.5,18,22,28,36,52,65,79,101,6,2010,20100607,UT
40.3002303,-110.6023811,09277500,gr01,47,105,Duchesne R nr Tabiona (2)               ,APR-JUL VOLUME,bound_10_30_50_70_90,42,52,60,68,84,40,50,57,65,80,6,2010,20100607,UT
40.3002303,-110.6023811,09277500,gr01,67,60,Duchesne R nr Tabiona (2)               ,JUN-JUL VOLUME,bound_10_30_50_70_90,22,32,40,49,64,37,53,67,82,107,6,2010,20100607,UT
40.5574453,-110.6979414,09277800,gr01,47,82,Upper Stillwater Reservoir Inflow       ,APR-JUL VOLUME,bound_10_30_50_70_90,38,45,50,56,64,46,55,61,68,78,6,2010,20100607,UT
40.5574453,-110.6979414,09277800,gr01,67,56,Upper Stillwater Reservoir Inflow       ,JUN-JUL VOLUME,bound_10_30_50_70_90,28,35,40,46,54,50,62,71,82,96,6,2010,20100607,UT
40.49328,-110.5782169,09279000,gr01,47,89,Rock Ck nr Mountain Home (2)            ,APR-JUL VOLUME,bound_10_30_50_70_90,42,50,56,62,72,47,56,63,70,81,6,2010,20100607,UT
40.49328,-110.5782169,09279000,gr01,67,62,Rock Ck nr Mountain Home (2)            ,JUN-JUL VOLUME,bound_10_30_50_70_90,30,38,44,50,60,48,61,71,81,97,6,2010,20100607,UT
40.2705106,-110.4426567,09279150,gr01,47,188,Duchesne R abv Knight Diversion (2)     ,APR-JUL VOLUME,bound_10_30_50_70_90,78,94,107,121,144,41,50,57,64,77,6,2010,20100607,UT
40.2705106,-110.4426567,09279150,gr01,67,117,Duchesne R abv Knight Diversion (2)     ,JUN-JUL VOLUME,bound_10_30_50_70_90,44,60,73,87,110,38,51,62,74,94,6,2010,20100607,UT
40.1332881,-111.0248869,09285000,gr01,47,59,Strawberry R nr Soldier Springs (2)     ,APR-JUL VOLUME,bound_10_30_50_70_90,21,23,25,27,32,36,39,42,46,54,6,2010,20100607,UT
40.1332881,-111.0248869,09285000,gr01,67,16,Strawberry R nr Soldier Springs (2)     ,JUN-JUL VOLUME,bound_10_30_50_70_90,0.52,2.2,4.1,6.5,11.1,3,14,26,41,69,6,2010,20100607,UT
40.3307839,-111.0496108,09286700,gr01,47,25,Currant Creek Reservoir Inflow (2)      ,APR-JUL VOLUME,bound_10_30_50_70_90,4.9,6.8,8.4,10.2,13.4,20,27,34,41,54,6,2010,20100607,UT
40.3307839,-111.0496108,09286700,gr01,67,11.8,Currant Creek Reservoir Inflow (2)      ,JUN-JUL VOLUME,bound_10_30_50_70_90,2.5,4.4,6,7.8,11,21,37,51,66,93,6,2010,20100607,UT
40.1546794,-110.5548786,09288180,gr01,47,121,Strawberry R nr Duchesne (2)            ,APR-JUL VOLUME,bound_10_30_50_70_90,38,44,49,55,66,31,36,40,45,55,6,2010,20100607,UT
40.1546794,-110.5548786,09288180,gr01,67,41,Strawberry R nr Duchesne (2)            ,JUN-JUL VOLUME,bound_10_30_50_70_90,4.2,9.8,15,21,32,10,24,37,51,78,6,2010,20100607,UT
40.6066125,-110.5271067,09289500,gr01,47,68,Lake Fork River Moon Lake Inflow        ,APR-JUL VOLUME,bound_10_30_50_70_90,29,35,39,44,51,43,51,57,65,75,6,2010,20100607,UT
40.6066125,-110.5271067,09289500,gr01,67,47,Lake Fork River Moon Lake Inflow        ,JUN-JUL VOLUME,bound_10_30_50_70_90,20,26,30,35,42,43,55,64,74,89,6,2010,20100607,UT
40.5118931,-110.3415492,09292500,gr01,47,62,Yellowstone River nr Altonah            ,APR-JUL VOLUME,bound_10_30_50_70_90,29,35,39,43,50,47,56,63,69,81,6,2010,20100607,UT
40.5118931,-110.3415492,09292500,gr01,67,45,Yellowstone River nr Altonah            ,JUN-JUL VOLUME,bound_10_30_50_70_90,20,26,30,34,41,44,58,67,76,91,6,2010,20100607,UT
40.2002375,-110.0637614,09295000,gr01,47,260,Duchesne R at Myton (2)                 ,APR-JUL VOLUME,bound_10_30_50_70_90,48,67,86,109,150,18,26,33,42,58,6,2010,20100607,UT
40.2002375,-110.0637614,09295000,gr01,67,142,Duchesne R at Myton (2)                 ,JUN-JUL VOLUME,bound_10_30_50_70_90,14.1,34,53,76,117,10,24,37,54,82,6,2010,20100607,UT
40.58333,-110.11361,09296800,gr01,47,79,Uintah River nr Neola                   ,APR-JUL VOLUME,bound_10_30_50_70_90,29,41,49,57,69,37,52,62,72,87,6,2010,20100607,UT
40.58333,-110.11361,09296800,gr01,67,57,Uintah River nr Neola                   ,JUN-JUL VOLUME,bound_10_30_50_70_90,19.6,32,40,48,60,34,56,70,84,105,6,2010,20100607,UT
40.5935653,-109.9323739,09299500,gr01,47,56,Whiterocks nr Whiterocks                ,APR-JUL VOLUME,bound_10_30_50_70_90,25,31,35,39,47,45,55,62,70,84,6,2010,20100607,UT
40.5935653,-109.9323739,09299500,gr01,67,38,Whiterocks nr Whiterocks                ,JUN-JUL VOLUME,bound_10_30_50_70_90,15.5,21,25,29,37,41,55,66,76,97,6,2010,20100607,UT
40.2155172,-109.7834764,09302000,gr01,47,324,Duchesne R nr Randlett (2)              ,APR-JUL VOLUME,bound_10_30_50_70_90,53,80,106,138,195,16,25,33,43,60,6,2010,20100607,UT
40.2155172,-109.7834764,09302000,gr01,67,186,Duchesne R nr Randlett (2)              ,JUN-JUL VOLUME,bound_10_30_50_70_90,16.2,43,69,101,158,9,23,37,54,85,6,2010,20100607,UT
39.76666,-111.18333,09310500,gr01,47,32.1,Fish Creek ab Reservoir nr Scofield     ,APR-JUL VOLUME,bound_10_30_50_70_90,16.2,17.1,19.5,22,25,50,53,61,69,78,6,2010,20100607,UT
39.76666,-111.18333,09310500,gr01,67,11.5,Fish Creek ab Reservoir nr Scofield     ,JUN-JUL VOLUME,bound_10_30_50_70_90,2.2,3.1,5.5,7.9,11.4,19,27,48,69,99,6,2010,20100607,UT
39.7874611,-111.1257256,09311000,gr01,47,45,Price River nr Scofield Reservoir (2)   ,APR-JUL VOLUME,bound_10_30_50_70_90,21,23,25,27,31,47,51,56,60,69,6,2010,20100607,UT
39.7874611,-111.1257256,09311000,gr01,67,17,Price River nr Scofield Reservoir (2)   ,JUN-JUL VOLUME,bound_10_30_50_70_90,4,6.2,8,10.2,14,24,36,47,60,82,6,2010,20100607,UT
39.8757928,-111.0373878,09312600,gr01,47,17.3,White River blw Tabbyune Creek          ,APR-JUL VOLUME,bound_10_30_50_70_90,5.6,6.2,6.7,7.3,8.3,32,36,39,42,48,6,2010,20100607,UT
39.8757928,-111.0373878,09312600,gr01,67,4.16,White River blw Tabbyune Creek          ,JUN-JUL VOLUME,bound_10_30_50_70_90,1.05,1.68,2.2,2.8,3.8,25,40,53,67,91,6,2010,20100607,UT
38.9860831,-110.1512475,09315000,gr01,47,3170,Green River at Green River UT (2)      ,APR-JUL VOLUME,bound_10_30_50_70_90,1700,1900,2050,2210,2450,54,60,65,70,77,6,2010,20100607,UT
38.9860831,-110.1512475,09315000,gr01,67,1710,Green River at Green River UT (2)      ,JUN-JUL VOLUME,bound_10_30_50_70_90,785,985,1130,1290,1530,46,58,66,75,89,6,2010,20100607,UT
39.5992,-111.2086,09317801,gr01,47,15.7,Huntington Ck Inflow to Electric Lk     ,APR-JUL VOLUME,bound_10_30_50_70_90,3.8,4.5,5.1,5.7,6.8,24,29,32,36,43,6,2010,20100607,UT
39.5992,-111.2086,09317801,gr01,67,5.75,Huntington Ck Inflow to Electric Lk     ,JUN-JUL VOLUME,bound_10_30_50_70_90,1.44,2.1,2.7,3.3,4.4,25,37,47,57,77,6,2010,20100607,UT
39.3852447,-111.088225,09317997,gr01,47,49,Huntington Ck nr Huntington (2)         ,APR-JUL VOLUME,bound_10_30_50_70_90,18.1,21,23,25,28,37,43,47,51,57,6,2010,20100607,UT
39.3852447,-111.088225,09317997,gr01,67,26,Huntington Ck nr Huntington (2)         ,JUN-JUL VOLUME,bound_10_30_50_70_90,8.6,11.1,13,15,18.3,33,43,50,58,70,6,2010,20100607,UT
39.2888533,-111.270173,09323900,gr01,47,58,Joe's Valley Reservoir Inflow           ,APR-JUL VOLUME,bound_10_30_50_70_90,18.2,23,27,31,38,31,40,47,53,66,6,2010,20100607,UT
39.2888533,-111.270173,09323900,gr01,67,35,Joe's Valley Reservoir Inflow           ,JUN-JUL VOLUME,bound_10_30_50_70_90,8,12.6,16.3,21,28,23,36,47,60,80,6,2010,20100607,UT
39.1041372,-111.2165589,09326500,gr01,47,39,Ferron Ck (Upper Station) nr Ferron     ,APR-JUL VOLUME,bound_10_30_50_70_90,17.8,20,22,24,27,46,51,56,62,69,6,2010,20100607,UT
39.1041372,-111.2165589,09326500,gr01,67,23,Ferron Ck (Upper Station) nr Ferron     ,JUN-JUL VOLUME,bound_10_30_50_70_90,10.5,13.1,15,17,20,46,57,65,74,87,6,2010,20100607,UT
38.6277522,-111.6479647,09329050,gr01,47,7,Seven Mile Ck nr Fish Lake              ,APR-JUL VOLUME,bound_10_30_50_70_90,3.8,5.1,6,6.9,8.2,54,73,86,99,117,6,2010,20100607,UT
38.6277522,-111.6479647,09329050,gr01,67,3.1,Seven Mile Ck nr Fish Lake              ,JUN-JUL VOLUME,bound_10_30_50_70_90,0.62,1.92,2.8,3.7,5,20,62,90,119,161,6,2010,20100607,UT
38.9819189,-111.2493364,09330500,gr01,47,19.9,Muddy Creek nr Emery                    ,APR-JUL VOLUME,bound_10_30_50_70_90,8.4,10.2,11.6,13.2,15.7,42,51,58,66,79,6,2010,20100607,UT
38.9819189,-111.2493364,09330500,gr01,67,11.9,Muddy Creek nr Emery                    ,JUN-JUL VOLUME,bound_10_30_50_70_90,5,6.8,8.2,9.8,12.3,42,57,69,82,103,6,2010,20100607,UT
37.85,-111.6333,09337000,gr01,47,2.4,Pine Creek nr Escalante                 ,APR-JUL VOLUME,bound_10_30_50_70_90,1.01,1.21,1.37,1.56,1.88,42,50,57,65,78,6,2010,20100607,UT
37.85,-111.6333,09337000,gr01,67,0.94,Pine Creek nr Escalante                 ,JUN-JUL VOLUME,bound_10_30_50_70_90,0.26,0.46,0.62,0.81,1.13,28,49,66,86,120,6,2010,20100607,UT
37.3833133,-113.483288,09408400,lc01,47,5.5,Santa Clara River nr Pine Valley        ,APR-JUL VOLUME,bound_10_30_50_70_90,5.4,5.8,6.1,6.4,6.9,98,105,111,116,125,6,2010,20100607,UT
37.3833133,-113.483288,09408400,lc01,67,2.4,Santa Clara River nr Pine Valley        ,JUN-JUL VOLUME,bound_10_30_50_70_90,1.79,2.2,2.5,2.8,3.3,75,92,104,117,138,6,2010,20100607,UT
37.2041494,-113.1807789,09406000,lc01,47,64,Virgin River at Virgin                  ,APR-JUL VOLUME,bound_10_30_50_70_90,68,70,72,73,75,106,109,112,114,117,6,2010,20100607,UT
37.2041494,-113.1807789,09406000,lc01,67,16.4,Virgin River at Virgin                  ,JUN-JUL VOLUME,bound_10_30_50_70_90,12.6,14.6,16,17.5,19.8,77,89,98,107,121,6,2010,20100607,UT
37.1722044,-113.3860617,09408150,lc01,47,69,Virgin River nr Hurricane               ,APR-JUL VOLUME,bound_10_30_50_70_90,62,65,67,69,73,90,94,97,100,106,6,2010,20100607,UT
37.1722044,-113.3860617,09408150,lc01,67,18.1,Virgin River nr Hurricane               ,JUN-JUL VOLUME,bound_10_30_50_70_90,11.9,14.8,17,19.3,23,66,82,94,107,127,6,2010,20100607,UT
36.8916436,-113.9244097,09415000,lc01,47,74,Virgin River at Littlefield             ,APR-JUL VOLUME,bound_10_30_50_70_90,69,73,75,78,83,93,99,101,105,112,6,2010,20100607,AZ
36.8916436,-113.9244097,09415000,lc01,67,18.4,Virgin River at Littlefield             ,JUN-JUL VOLUME,bound_10_30_50_70_90,13.5,17.2,20,23,28,73,93,109,125,152,6,2010,20100607,AZ
48.8302597,-113.517321,05016000,mb01,67,61,LAKE SHERBURNE Inflow                   ,JUN-JUL VOLUME,bound_10_30_50_70_90,42,50,55,60,68,69,82,90,98,111,6,2010,20100607,MT
48.8302597,-113.517321,05016000,mb01,69,78,LAKE SHERBURNE Inflow                   ,JUN-SEP VOLUME,bound_10_30_50_70_90,56,65,71,77,86,72,83,91,99,110,6,2010,20100607,MT
48.833315,-113.41982,05017500,mb01,67,250,ST. MARY RIVER nr Babb (2)              ,JUN-JUL VOLUME,bound_10_30_50_70_90,174,205,225,245,275,70,82,90,98,110,6,2010,20100607,MT
48.833315,-113.41982,05017500,mb01,69,315,ST. MARY RIVER nr Babb (2)              ,JUN-SEP VOLUME,bound_10_30_50_70_90,230,265,290,315,350,73,84,92,100,111,6,2010,20100607,MT
49.0033211,-113.3142608,05020500,mb01,67,265,ST. MARY RIVER at US/CAN Border (2)     ,JUN-JUL VOLUME,bound_10_30_50_70_90,190,230,260,290,330,72,87,98,109,125,6,2010,20100607,MT
49.0033211,-113.3142608,05020500,mb01,69,345,ST. MARY RIVER at US/CAN Border (2)     ,JUN-SEP VOLUME,bound_10_30_50_70_90,250,300,330,360,410,72,87,96,104,119,6,2010,20100607,MT
44.6560233,-112.3713889,06012500,mb01,67,39,LIMA RESERVOIR Inflow (2)               ,JUN-JUL VOLUME,bound_10_30_50_70_90,3.3,7.7,13.2,18.7,27,8,20,34,48,69,6,2010,20100607,MT
44.6560233,-112.3713889,06012500,mb01,69,47,LIMA RESERVOIR Inflow (2)               ,JUN-SEP VOLUME,bound_10_30_50_70_90,3.4,8.2,15.3,22,33,7,17,33,47,70,6,2010,20100607,MT
45.0032542,-112.8536364,06015400,mb01,67,51,CLARK CANYON Inflow (2)                 ,JUN-JUL VOLUME,bound_10_30_50_70_90,8,13.5,20,38,64,16,26,39,75,125,6,2010,20100607,MT
45.0032542,-112.8536364,06015400,mb01,69,76,CLARK CANYON Inflow (2)                 ,JUN-SEP VOLUME,bound_10_30_50_70_90,12.4,19.7,31,51,81,16,26,41,67,107,6,2010,20100607,MT
45.11631,-112.7505792,06016000,mb01,67,71,BEAVERHEAD RIVER at Barretts (2)        ,JUN-JUL VOLUME,bound_10_30_50_70_90,14,23,35,61,99,20,32,49,86,139,6,2010,20100607,MT
45.11631,-112.7505792,06016000,mb01,69,103,BEAVERHEAD RIVER at Barretts (2)        ,JUN-SEP VOLUME,bound_10_30_50_70_90,21,33,52,85,135,20,32,50,83,131,6,2010,20100607,MT
45.1924222,-112.1424864,06019500,mb01,67,46,RUBY RIVER Reservoir Inflow             ,JUN-JUL VOLUME,bound_10_30_50_70_90,26,35,41,47,56,57,76,89,102,122,6,2010,20100607,MT
45.1924222,-112.1424864,06019500,mb01,69,62,RUBY RIVER Reservoir Inflow             ,JUN-SEP VOLUME,bound_10_30_50_70_90,36,47,54,61,72,58,76,87,98,116,6,2010,20100607,MT
45.6185342,-113.4578372,06024450,mb01,67,54,BIG HOLE RIVER at Wisdom                ,JUN-JUL VOLUME,bound_10_30_50_70_90,5.9,17.7,33,48,71,11,33,61,89,131,6,2010,20100607,MT
45.6185342,-113.4578372,06024450,mb01,69,63,BIG HOLE RIVER at Wisdom                ,JUN-SEP VOLUME,bound_10_30_50_70_90,7.7,20,38,56,82,12,32,60,89,130,6,2010,20100607,MT
45.5265933,-112.7016903,06025500,mb01,67,325,BIG HOLE RIVER nr Melrose               ,JUN-JUL VOLUME,bound_10_30_50_70_90,280,345,390,435,500,86,106,120,134,154,6,2010,20100607,MT
45.5265933,-112.7016903,06025500,mb01,69,380,BIG HOLE RIVER nr Melrose               ,JUN-SEP VOLUME,bound_10_30_50_70_90,310,390,445,500,580,82,103,117,132,153,6,2010,20100607,MT
45.61388889,-112.3291667,06026500,mb01,67,390,JEFFERSON nr Twin Bridges (2)           ,JUN-JUL VOLUME,bound_10_30_50_70_90,230,335,405,475,580,59,86,104,122,149,6,2010,20100607,MT
45.61388889,-112.3291667,06026500,mb01,69,465,JEFFERSON nr Twin Bridges (2)           ,JUN-SEP VOLUME,bound_10_30_50_70_90,235,370,460,550,685,51,80,99,118,147,6,2010,20100607,MT
46.2110389,-112.091665,06033000,mb01,67,36,BOULDER RIVER nr Boulder                ,JUN-JUL VOLUME,bound_10_30_50_70_90,10.5,17.4,22,27,33,29,48,61,75,92,6,2010,20100607,MT
46.2110389,-112.091665,06033000,mb01,69,43,BOULDER RIVER nr Boulder                ,JUN-SEP VOLUME,bound_10_30_50_70_90,10.6,19.8,26,32,41,25,46,60,74,95,6,2010,20100607,MT
45.7229839,-111.7410894,06035000,mb01,67,10.8,WILLOW CREEK Reservoir Inflow           ,JUN-JUL VOLUME,bound_10_30_50_70_90,10.5,13.6,15.7,17.8,21,97,126,145,165,194,6,2010,20100607,MT
45.7229839,-111.7410894,06035000,mb01,69,13.1,WILLOW CREEK Reservoir Inflow           ,JUN-SEP VOLUME,bound_10_30_50_70_90,13.9,18.1,21,24,28,106,138,160,183,214,6,2010,20100607,MT
45.8977058,-111.5966389,06036650,mb01,67,370,JEFFERSON RIVER nr Three Forks (2)      ,JUN-JUL VOLUME,bound_10_30_50_70_90,192,305,385,465,580,52,82,104,126,157,6,2010,20100607,MT
45.8977058,-111.5966389,06036650,mb01,69,450,JEFFERSON RIVER nr Three Forks (2)      ,JUN-SEP VOLUME,bound_10_30_50_70_90,225,365,460,555,695,50,81,102,123,154,6,2010,20100607,MT
44.8665928,-111.338288,06038500,mb01,67,200,HEBGEN Reservoir Inflow                 ,JUN-JUL VOLUME,bound_10_30_50_70_90,85,111,128,145,171,42,56,64,72,86,6,2010,20100607,MT
44.8665928,-111.338288,06038500,mb01,69,310,HEBGEN Reservoir Inflow                 ,JUN-SEP VOLUME,bound_10_30_50_70_90,148,179,200,220,250,48,58,65,71,81,6,2010,20100607,MT
45.4902058,-111.6341383,06041000,mb01,67,375,ENNIS Reservoir Inflow (2)              ,JUN-JUL VOLUME,bound_10_30_50_70_90,173,215,240,265,305,46,57,64,71,81,6,2010,20100607,MT
45.4902058,-111.6341383,06041000,mb01,69,540,ENNIS Reservoir Inflow (2)              ,JUN-SEP VOLUME,bound_10_30_50_70_90,260,310,345,380,430,48,57,64,70,80,6,2010,20100607,MT
45.4974286,-111.2705108,06043500,mb01,67,285,GALLATIN RIVER nr Gateway               ,JUN-JUL VOLUME,bound_10_30_50_70_90,172,205,230,255,290,60,72,81,89,102,6,2010,20100607,MT
45.4974286,-111.2705108,06043500,mb01,69,360,GALLATIN RIVER nr Gateway               ,JUN-SEP VOLUME,bound_10_30_50_70_90,225,265,295,325,365,62,74,82,90,101,6,2010,20100607,MT
45.4737,-110.9585,06049450,mb01,67,14.9,HYALITE RESERVOIR Inflow                ,JUN-JUL VOLUME,bound_10_30_50_70_90,13,14.5,15.5,16.5,18,87,97,104,111,121,6,2010,20100607,MT
45.4737,-110.9585,06049450,mb01,69,18,HYALITE RESERVOIR Inflow                ,JUN-SEP VOLUME,bound_10_30_50_70_90,15,16.9,18.2,19.5,21,83,94,101,108,117,6,2010,20100607,MT
45.8852061,-111.4382983,06052500,mb01,67,280,GALLATIN RIVER at Logan                 ,JUN-JUL VOLUME,bound_10_30_50_70_90,126,179,215,250,305,45,64,77,89,109,6,2010,20100607,MT
45.8852061,-111.4382983,06052500,mb01,69,360,GALLATIN RIVER at Logan                 ,JUN-SEP VOLUME,bound_10_30_50_70_90,163,235,280,325,395,45,65,78,90,110,6,2010,20100607,MT
46.1460403,-111.42052,06054500,mb01,67,1090,MISSOURI RIVER at Toston (2)            ,JUN-JUL VOLUME,bound_10_30_50_70_90,730,795,860,1010,1230,67,73,79,93,113,6,2010,20100607,MT
46.1460403,-111.42052,06054500,mb01,69,1420,MISSOURI RIVER at Toston (2)            ,JUN-SEP VOLUME,bound_10_30_50_70_90,955,1030,1120,1320,1600,67,73,79,93,113,6,2010,20100607,MT
46.7680153,-110.8099361,06077000,mb01,67,9.1,SHEEP CREEK nr White Sulphur Spgs.      ,JUN-JUL VOLUME,bound_10_30_50_70_90,8.8,11,12.5,14,16.2,97,121,137,154,178,6,2010,20100607,MT
46.7680153,-110.8099361,06077000,mb01,69,12.1,SHEEP CREEK nr White Sulphur Spgs.      ,JUN-SEP VOLUME,bound_10_30_50_70_90,11,13.9,15.9,17.9,21,91,115,131,148,174,6,2010,20100607,MT
46.8280047,-111.1921742,06077200,mb01,67,75,SMITH RIVER bl Eagle Creek (2)          ,JUN-JUL VOLUME,bound_10_30_50_70_90,59,79,93,107,127,79,105,124,143,169,6,2010,20100607,MT
46.8280047,-111.1921742,06077200,mb01,69,91,SMITH RIVER bl Eagle Creek (2)          ,JUN-SEP VOLUME,bound_10_30_50_70_90,66,94,112,130,158,73,103,123,143,174,6,2010,20100607,MT
47.6005,-112.759,06078600,mb01,67,255,GIBSON Reservoir Inflow                 ,JUN-JUL VOLUME,bound_10_30_50_70_90,125,157,179,200,235,49,62,70,78,92,6,2010,20100607,MT
47.6005,-112.759,06078600,mb01,69,305,GIBSON Reservoir Inflow                 ,JUN-SEP VOLUME,bound_10_30_50_70_90,157,192,215,240,275,51,63,70,79,90,6,2010,20100607,MT
47.8174697,-110.6671586,06090800,mb01,67,1580,MISSOURI RIVER at Fort Benton (2)       ,JUN-JUL VOLUME,bound_10_30_50_70_90,1070,1220,1330,1440,1590,68,77,84,91,101,6,2010,20100607,MT
47.8174697,-110.6671586,06090800,mb01,69,2170,MISSOURI RIVER at Fort Benton (2)       ,JUN-SEP VOLUME,bound_10_30_50_70_90,1470,1680,1830,1980,2200,68,77,84,91,101,6,2010,20100607,MT
48.4266358,-112.9898006,06091700,mb01,67,95,TWO MEDICINE RIVER nr Browning (2)      ,JUN-JUL VOLUME,bound_10_30_50_70_90,45,59,68,77,91,47,62,72,81,96,6,2010,20100607,MT
48.4266358,-112.9898006,06091700,mb01,69,107,TWO MEDICINE RIVER nr Browning (2)      ,JUN-SEP VOLUME,bound_10_30_50_70_90,51,66,77,88,103,48,62,72,82,96,6,2010,20100607,MT
48.3699711,-112.8028433,06093200,mb01,67,44,BADGER CREEK nr Browning                ,JUN-JUL VOLUME,bound_10_30_50_70_90,14.2,24,31,38,48,32,55,70,86,109,6,2010,20100607,MT
48.3699711,-112.8028433,06093200,mb01,69,53,BADGER CREEK nr Browning                ,JUN-SEP VOLUME,bound_10_30_50_70_90,17.1,29,37,45,57,32,55,70,85,108,6,2010,20100607,MT
48.1667,-112.8667,06094100,mb01,67,35,SWIFT RESERVOIR Inflow                  ,JUN-JUL VOLUME,bound_10_30_50_70_90,18.8,25,29,33,39,54,71,83,94,111,6,2010,20100607,MT
48.1667,-112.8667,06094100,mb01,69,47,SWIFT RESERVOIR Inflow                  ,JUN-SEP VOLUME,bound_10_30_50_70_90,26,34,39,44,52,55,72,83,94,111,6,2010,20100607,MT
48.2436,-112.3852,06095400,mb01,67,6.5,DUPUYER CREEK nr Valier                 ,JUN-JUL VOLUME,bound_10_30_50_70_90,0.6,2.2,5.3,8.4,12.8,9,34,82,129,197,6,2010,20100607,MT
48.2436,-112.3852,06095400,mb01,69,8.3,DUPUYER CREEK nr Valier                 ,JUN-SEP VOLUME,bound_10_30_50_70_90,0.8,2.8,6.5,10.2,15.5,10,34,78,123,187,6,2010,20100607,MT
48.61667,-113.035,06098500,mb01,67,42,CUT BANK CREEK nr Browning              ,JUN-JUL VOLUME,bound_10_30_50_70_90,18.8,27,32,37,45,45,64,76,88,107,6,2010,20100607,MT
48.61667,-113.035,06098500,mb01,69,49,CUT BANK CREEK nr Browning              ,JUN-SEP VOLUME,bound_10_30_50_70_90,22,31,37,43,52,45,63,76,88,106,6,2010,20100607,MT
48.427205,-111.8897444,06099500,mb01,67,183,MARIAS RIVER nr Shelby (2)              ,JUN-JUL VOLUME,bound_10_30_50_70_90,48,75,119,163,230,26,41,65,89,126,6,2010,20100607,MT
48.427205,-111.8897444,06099500,mb01,69,210,MARIAS RIVER nr Shelby (2)              ,JUN-SEP VOLUME,bound_10_30_50_70_90,54,83,134,185,260,26,40,64,88,124,6,2010,20100607,MT
47.9302408,-111.5527636,06108000,mb01,67,27,TETON nr Dutton                         ,JUN-JUL VOLUME,bound_10_30_50_70_90,7,11.2,17.4,30,48,26,41,64,111,178,6,2010,20100607,MT
47.9302408,-111.5527636,06108000,mb01,69,35,TETON nr Dutton                         ,JUN-SEP VOLUME,bound_10_30_50_70_90,9.2,14.5,23,38,60,26,41,66,109,171,6,2010,20100607,MT
47.1985567,-112.0963939,06073500,mb01,67,63,DEARBORN nr Craig                       ,JUN-JUL VOLUME,bound_10_30_50_70_90,10,24,34,44,58,16,38,54,70,92,6,2010,20100607,MT
47.1985567,-112.0963939,06073500,mb01,69,67,DEARBORN nr Craig                       ,JUN-SEP VOLUME,bound_10_30_50_70_90,13.9,30,41,52,68,21,45,61,78,101,6,2010,20100607,MT
48.0049733,-110.2577078,06109500,mb01,67,1820,MISSOURI RIVER at Virgelle (2)          ,JUN-JUL VOLUME,bound_10_30_50_70_90,975,1330,1570,1810,2170,54,73,86,99,119,6,2010,20100607,MT
48.0049733,-110.2577078,06109500,mb01,69,2430,MISSOURI RIVER at Virgelle (2)          ,JUN-SEP VOLUME,bound_10_30_50_70_90,1310,1770,2090,2410,2880,54,73,86,99,119,6,2010,20100607,MT
47.6308233,-108.6876522,06115200,mb01,67,1950,MISSOURI RIVER nr Landusky (2)          ,JUN-JUL VOLUME,bound_10_30_50_70_90,1060,1440,1700,1960,2340,54,74,87,101,120,6,2010,20100607,MT
47.6308233,-108.6876522,06115200,mb01,69,2610,MISSOURI RIVER nr Landusky (2)          ,JUN-SEP VOLUME,bound_10_30_50_70_90,1410,1920,2270,2620,3140,54,74,87,100,120,6,2010,20100607,MT
46.6099517,-110.5757567,06115500,mb01,67,2.3,NF MUSSELSHELL nr Delpine               ,JUN-JUL VOLUME,bound_10_30_50_70_90,1.2,1.85,3,4.2,5.8,52,80,130,183,252,6,2010,20100607,MT
46.6099517,-110.5757567,06115500,mb01,69,3.2,NF MUSSELSHELL nr Delpine               ,JUN-SEP VOLUME,bound_10_30_50_70_90,2.1,3.5,4.5,5.5,6.9,66,109,141,172,216,6,2010,20100607,MT
46.4532808,-110.3821361,06118500,mb01,67,25,SF MUSSELSHELL abv Martinsdale          ,JUN-JUL VOLUME,bound_10_30_50_70_90,8.1,19.4,27,35,46,32,78,108,140,184,6,2010,20100607,MT
46.4532808,-110.3821361,06118500,mb01,69,29,SF MUSSELSHELL abv Martinsdale          ,JUN-SEP VOLUME,bound_10_30_50_70_90,9.9,22,30,38,50,34,76,103,131,172,6,2010,20100607,MT
46.4299564,-109.8407389,06120500,mb01,67,37,MUSSELSHELL at Harlowton (2)            ,JUN-JUL VOLUME,bound_10_30_50_70_90,18.4,28,46,64,90,50,76,124,173,243,6,2010,20100607,MT
46.4299564,-109.8407389,06120500,mb01,69,41,MUSSELSHELL at Harlowton (2)            ,JUN-SEP VOLUME,bound_10_30_50_70_90,20,32,50,68,94,49,78,122,166,229,6,2010,20100607,MT
46.4280192,-108.5726353,06126500,mb01,67,47,MUSSELSHELL nr Roundup (2)              ,JUN-JUL VOLUME,bound_10_30_50_70_90,13.6,39,56,73,98,29,83,119,155,209,6,2010,20100607,MT
46.4280192,-108.5726353,06126500,mb01,69,50,MUSSELSHELL nr Roundup (2)              ,JUN-SEP VOLUME,bound_10_30_50_70_90,16.6,42,59,76,101,33,84,118,152,202,6,2010,20100607,MT
48.0441847,-106.3564211,06132000,mb01,67,1960,MISSOURI RIVER below Fort Peck (2)      ,JUN-JUL VOLUME,bound_10_30_50_70_90,1010,1370,1610,1850,2210,52,70,82,94,113,6,2010,20100607,MT
48.0441847,-106.3564211,06132000,mb01,69,2550,MISSOURI RIVER below Fort Peck (2)      ,JUN-SEP VOLUME,bound_10_30_50_70_90,1320,1780,2100,2420,2890,52,70,82,95,113,6,2010,20100607,MT
49.0074922,-112.5459017,06133000,mb01,67,9.5,MILK RIVER @ Western Crossing (3)       ,JUN-JUL VOLUME,bound_10_30_50_70_90,3,4.3,7.4,10.5,15,32,45,78,111,158,6,2010,20100607,MT
49.0074922,-112.5459017,06133000,mb01,69,11.3,MILK RIVER @ Western Crossing (3)       ,JUN-SEP VOLUME,bound_10_30_50_70_90,3.8,5.3,9.4,13.5,19.4,34,47,83,119,172,6,2010,20100607,MT
48.9828,-110.4694,06135100,mb01,67,19.5,MILK RIVER @ Eastern Crossing (23)     ,JUN-JUL VOLUME,bound_10_30_50_70_90,6.6,11,16.6,30,50,34,56,85,154,256,6,2010,20100607,MT
48.9828,-110.4694,06135100,mb01,69,28.9,MILK RIVER @ Eastern Crossing (23)     ,JUN-SEP VOLUME,bound_10_30_50_70_90,9.6,15,24,39,61,33,52,83,135,211,6,2010,20100607,MT
48.4093,-109.7222,06140200,mb01,67,4,BEAVER CREEK near Havre                 ,JUN-JUL VOLUME,bound_10_30_50_70_90,3,4.1,7.5,10.9,15.9,75,102,188,272,398,6,2010,20100607,MT
48.1125236,-103.7182558,06330000,mb01,67,5800,LAKE SAKAKAWEA Inflow (2)               ,JUN-JUL VOLUME,bound_10_30_50_70_90,2900,3750,4520,5290,6150,50,65,78,91,106,6,2010,20100607,MT
48.1125236,-103.7182558,06330000,mb01,69,7240,LAKE SAKAKAWEA Inflow (2)               ,JUN-SEP VOLUME,bound_10_30_50_70_90,3620,4690,5650,6610,7680,50,65,78,91,106,6,2010,20100607,MT
40.9374736,-106.3383597,06620000,pb01,67,133,NORTH PLATTE RIVER nr Northgate         ,JUN-JUL VOLUME,bound_10_30_50_70_90,92,118,136,154,180,69,89,102,116,135,6,2010,20100607,CO
40.9374736,-106.3383597,06620000,pb01,69,159,NORTH PLATTE RIVER nr Northgate         ,JUN-SEP VOLUME,bound_10_30_50_70_90,110,142,164,186,220,69,89,103,117,138,6,2010,20100607,CO
41.3032986,-106.7153128,06625000,pb01,67,99,ENCAMPMENT RIVER nr Encampment          ,JUN-JUL VOLUME,bound_10_30_50_70_90,90,105,115,125,140,91,106,116,126,141,6,2010,20100607,WY
41.3032986,-106.7153128,06625000,pb01,69,108,ENCAMPMENT RIVER nr Encampment          ,JUN-SEP VOLUME,bound_10_30_50_70_90,99,115,126,137,153,92,106,117,127,142,6,2010,20100607,WY
41.5852456,-106.2227908,06632400,pb01,67,38,ROCK CREEK nr Arlington                 ,JUN-JUL VOLUME,bound_10_30_50_70_90,40,44,47,50,54,105,116,124,132,142,6,2010,20100607,WY
41.5852456,-106.2227908,06632400,pb01,69,41,ROCK CREEK nr Arlington                 ,JUN-SEP VOLUME,bound_10_30_50_70_90,43,48,51,54,59,105,117,124,132,144,6,2010,20100607,WY
42.4577364,-107.1964467,06639000,pb01,67,33,SWEETWATER RIVER nr Alcova              ,JUN-JUL VOLUME,bound_10_30_50_70_90,31,38,43,48,55,94,115,130,145,167,6,2010,20100607,WY
42.4577364,-107.1964467,06639000,pb01,69,39,SWEETWATER RIVER nr Alcova              ,JUN-SEP VOLUME,bound_10_30_50_70_90,35,43,49,55,63,90,110,126,141,162,6,2010,20100607,WY
42.1557925,-106.908655,06635500,pb01,67,435,SEMINOE RESERVOIR Inflow                ,JUN-JUL VOLUME,bound_10_30_50_70_90,340,425,485,545,630,78,98,111,125,145,6,2010,20100607,WY
42.1557925,-106.908655,06635500,pb01,69,500,SEMINOE RESERVOIR Inflow                ,JUN-SEP VOLUME,bound_10_30_50_70_90,380,485,555,625,730,76,97,111,125,146,6,2010,20100607,WY
42.8638553,-105.866115,06646600,pb01,67,5.5,DEER CREEK at Glenrock                  ,JUN-JUL VOLUME,bound_10_30_50_70_90,4.8,9.1,12,14.9,19.2,87,165,218,271,349,6,2010,20100607,WY
42.8638553,-105.866115,06646600,pb01,69,6.1,DEER CREEK at Glenrock                  ,JUN-SEP VOLUME,bound_10_30_50_70_90,6,10,12.7,15.4,19.4,98,164,208,252,318,6,2010,20100607,WY
42.6810781,-105.63055,06649000,pb01,67,4.9,LaPRELE CREEK abv Reservoir             ,JUN-JUL VOLUME,bound_10_30_50_70_90,3.7,6.2,7.9,9.6,12.1,76,127,161,196,247,6,2010,20100607,WY
42.6810781,-105.63055,06649000,pb01,69,5.2,LaPRELE CREEK abv Reservoir             ,JUN-SEP VOLUME,bound_10_30_50_70_90,4.2,6.6,8.3,10,12.4,81,127,160,192,238,6,2010,20100607,WY
42.6505239,-105.1633103,06652000,pb01,67,25,NORTH PLATTE - Alcova to Orin Gain      ,JUN-JUL VOLUME,bound_10_30_50_70_90,15.6,24,39,54,75,62,96,156,216,300,6,2010,20100607,WY
42.6505239,-105.1633103,06652000,pb01,69,33,NORTH PLATTE - Alcova to Orin Gain      ,JUN-SEP VOLUME,bound_10_30_50_70_90,21,39,53,67,89,64,118,161,203,270,6,2010,20100607,WY
42.4569133,-104.9477478,06652800,pb01,67,440,NORTH PLATTE RIVER blw Glendo Res (2)   ,JUN-JUL VOLUME,bound_10_30_50_70_90,400,465,510,555,620,91,106,116,126,141,6,2010,20100607,WY
42.4569133,-104.9477478,06652800,pb01,69,470,NORTH PLATTE RIVER blw Glendo Res (2)   ,JUN-SEP VOLUME,bound_10_30_50_70_90,430,500,550,600,670,91,106,117,128,143,6,2010,20100607,WY
42.2805242,-104.7546867,06656000,pb01,67,450,NORTH PLATTE RIVER blw Guernsey Res (2) ,JUN-JUL VOLUME,bound_10_30_50_70_90,400,480,535,590,670,89,107,119,131,149,6,2010,20100607,WY
42.2805242,-104.7546867,06656000,pb01,69,500,NORTH PLATTE RIVER blw Guernsey Res (2) ,JUN-SEP VOLUME,bound_10_30_50_70_90,445,530,590,650,735,89,106,118,130,147,6,2010,20100607,WY
41.1380303,-105.9808394,06659500,pb01,67,77,LARAMIE RIVER nr Woods                  ,JUN-JUL VOLUME,bound_10_30_50_70_90,76,89,98,107,120,99,116,127,139,156,6,2010,20100607,WY
41.1380303,-105.9808394,06659500,pb01,69,89,LARAMIE RIVER nr Woods                  ,JUN-SEP VOLUME,bound_10_30_50_70_90,89,104,114,124,139,100,117,128,139,156,6,2010,20100607,WY
41.2949728,-106.0347292,06661000,pb01,67,42,LITTLE LARAMIE RIVER nr Filmore         ,JUN-JUL VOLUME,bound_10_30_50_70_90,50,55,59,63,68,119,131,140,150,162,6,2010,20100607,WY
41.2949728,-106.0347292,06661000,pb01,69,47,LITTLE LARAMIE RIVER nr Filmore         ,JUN-SEP VOLUME,bound_10_30_50_70_90,56,63,67,71,78,119,134,143,151,166,6,2010,20100607,WY
38.9923,-105.8891,06694650,pb01,47,16.8,ANTERO RESERVOIR Inflow (2)             ,APR-JUL VOLUME,bound_10_30_50_70_90,15.6,17.8,19.5,21,24,93,106,116,125,143,6,2010,20100607,CO
38.9923,-105.8891,06694650,pb01,49,21.8,ANTERO RESERVOIR Inflow (2)             ,APR-SEP VOLUME,bound_10_30_50_70_90,17.4,21,23,26,30,80,96,106,119,138,6,2010,20100607,CO
38.9923,-105.8891,06694650,pb01,67,11.5,ANTERO RESERVOIR Inflow (2)             ,JUN-JUL VOLUME,bound_10_30_50_70_90,6.4,8.6,10.3,11.8,14.8,56,75,90,103,129,6,2010,20100607,CO
38.9923,-105.8891,06694650,pb01,69,16.3,ANTERO RESERVOIR Inflow (2)             ,JUN-SEP VOLUME,bound_10_30_50_70_90,8.2,11.8,13.8,16.8,21,50,72,85,103,129,6,2010,20100607,CO
38.9694,-105.6092,06694920,pb01,47,56,SPINNEY MOUNTAIN RESV Inflow (2)        ,APR-JUL VOLUME,bound_10_30_50_70_90,38,45,51,57,67,68,80,91,102,120,6,2010,20100607,CO
38.9694,-105.6092,06694920,pb01,49,69,SPINNEY MOUNTAIN RESV Inflow (2)        ,APR-SEP VOLUME,bound_10_30_50_70_90,44,55,63,72,87,64,80,91,104,126,6,2010,20100607,CO
38.9694,-105.6092,06694920,pb01,67,39,SPINNEY MOUNTAIN RESV Inflow (2)        ,JUN-JUL VOLUME,bound_10_30_50_70_90,19.2,26,32,38,48,49,67,82,97,123,6,2010,20100607,CO
38.9694,-105.6092,06694920,pb01,69,52,SPINNEY MOUNTAIN RESV Inflow (2)        ,JUN-SEP VOLUME,bound_10_30_50_70_90,25,36,44,53,68,48,69,85,102,131,6,2010,20100607,CO
38.9046,-105.4723,06695500,pb01,47,58,ELEVENMILE CANYON RESV Inflow (2)       ,APR-JUL VOLUME,bound_10_30_50_70_90,40,47,53,59,69,69,81,91,102,119,6,2010,20100607,CO
38.9046,-105.4723,06695500,pb01,49,72,ELEVENMILE CANYON RESV Inflow (2)       ,APR-SEP VOLUME,bound_10_30_50_70_90,46,57,66,76,92,64,79,92,106,128,6,2010,20100607,CO
38.9046,-105.4723,06695500,pb01,67,41,ELEVENMILE CANYON RESV Inflow (2)       ,JUN-JUL VOLUME,bound_10_30_50_70_90,19.9,27,33,39,49,49,66,80,95,120,6,2010,20100607,CO
38.9046,-105.4723,06695500,pb01,69,54,ELEVENMILE CANYON RESV Inflow (2)       ,JUN-SEP VOLUME,bound_10_30_50_70_90,26,37,46,56,72,48,69,85,104,133,6,2010,20100607,CO
39.2091,-105.267,06701000,pb01,47,114,CHEESMAN LAKE Inflow (2)                ,APR-JUL VOLUME,bound_10_30_50_70_90,79,92,103,115,134,69,81,90,101,118,6,2010,20100607,CO
39.2091,-105.267,06701000,pb01,49,140,CHEESMAN LAKE Inflow (2)                ,APR-SEP VOLUME,bound_10_30_50_70_90,90,111,127,145,175,64,79,91,104,125,6,2010,20100607,CO
39.2091,-105.267,06701000,pb01,67,72,CHEESMAN LAKE Inflow (2)                ,JUN-JUL VOLUME,bound_10_30_50_70_90,34,47,58,70,89,47,65,81,97,124,6,2010,20100607,CO
39.2091,-105.267,06701000,pb01,69,99,CHEESMAN LAKE Inflow (2)                ,JUN-SEP VOLUME,bound_10_30_50_70_90,45,66,82,100,130,45,67,83,101,131,6,2010,20100607,CO
39.4091558,-105.16999,06707500,pb01,47,205,SOUTH PLATTE R at South Platte (2)      ,APR-JUL VOLUME,bound_10_30_50_70_90,139,161,178,197,225,68,79,87,96,110,6,2010,20100607,CO
39.4091558,-105.16999,06707500,pb01,49,255,SOUTH PLATTE R at South Platte (2)      ,APR-SEP VOLUME,bound_10_30_50_70_90,161,195,220,250,300,63,76,86,98,118,6,2010,20100607,CO
39.4091558,-105.16999,06707500,pb01,67,124,SOUTH PLATTE R at South Platte (2)      ,JUN-JUL VOLUME,bound_10_30_50_70_90,60,82,99,118,146,48,66,80,95,118,6,2010,20100607,CO
39.4091558,-105.16999,06707500,pb01,69,172,SOUTH PLATTE R at South Platte (2)      ,JUN-SEP VOLUME,bound_10_30_50_70_90,82,116,141,171,220,48,67,82,99,128,6,2010,20100607,CO
39.63276587,-105.3366596,06710385,pb01,47,19.3,BEAR CREEK abv Evergreen                ,APR-JUL VOLUME,bound_10_30_50_70_90,9.5,11.3,12.8,14.4,17.1,49,59,66,75,89,6,2010,20100607,CO
39.63276587,-105.3366596,06710385,pb01,49,25,BEAR CREEK abv Evergreen                ,APR-SEP VOLUME,bound_10_30_50_70_90,12.4,15.1,17.2,19.5,23,50,60,69,78,92,6,2010,20100607,CO
39.63276587,-105.3366596,06710385,pb01,67,10.4,BEAR CREEK abv Evergreen                ,JUN-JUL VOLUME,bound_10_30_50_70_90,4.3,6.1,7.6,9.2,11.9,41,59,73,88,114,6,2010,20100607,CO
39.63276587,-105.3366596,06710385,pb01,69,16,BEAR CREEK abv Evergreen                ,JUN-SEP VOLUME,bound_10_30_50_70_90,7.2,9.9,12,14.3,17.8,45,62,75,89,111,6,2010,20100607,CO
39.6530433,-105.1958219,06710500,pb01,47,25,BEAR CREEK at Morrison                  ,APR-JUL VOLUME,bound_10_30_50_70_90,10.4,13,15.2,17.8,22,42,52,61,71,88,6,2010,20100607,CO
39.6530433,-105.1958219,06710500,pb01,49,31,BEAR CREEK at Morrison                  ,APR-SEP VOLUME,bound_10_30_50_70_90,12.8,16.8,19.8,23,30,41,54,64,74,97,6,2010,20100607,CO
39.6530433,-105.1958219,06710500,pb01,67,11.9,BEAR CREEK at Morrison                  ,JUN-JUL VOLUME,bound_10_30_50_70_90,3.8,6.4,8.6,11.2,15.4,32,54,72,94,129,6,2010,20100607,CO
39.6530433,-105.1958219,06710500,pb01,69,17.7,BEAR CREEK at Morrison                  ,JUN-SEP VOLUME,bound_10_30_50_70_90,6.2,10.2,13.2,16.4,23,35,58,75,93,130,6,2010,20100607,CO
39.7530431,-105.2352667,06719505,pb01,47,110,CLEAR CREEK at Golden                   ,APR-JUL VOLUME,bound_10_30_50_70_90,63,72,79,86,98,57,65,72,78,89,6,2010,20100607,CO
39.7530431,-105.2352667,06719505,pb01,49,134,CLEAR CREEK at Golden                   ,APR-SEP VOLUME,bound_10_30_50_70_90,75,87,97,107,123,56,65,72,80,92,6,2010,20100607,CO
39.7530431,-105.2352667,06719505,pb01,67,82,CLEAR CREEK at Golden                   ,JUN-JUL VOLUME,bound_10_30_50_70_90,39,48,55,62,74,48,59,67,76,90,6,2010,20100607,CO
39.7530431,-105.2352667,06719505,pb01,69,106,CLEAR CREEK at Golden                   ,JUN-SEP VOLUME,bound_10_30_50_70_90,51,63,73,83,99,48,59,69,78,93,6,2010,20100607,CO
40.2180408,-105.2599886,06724000,pb01,47,94,ST. VRAIN CREEK at Lyons (2)            ,APR-JUL VOLUME,bound_10_30_50_70_90,72,79,84,89,98,77,84,89,95,104,6,2010,20100607,CO
40.2180408,-105.2599886,06724000,pb01,49,109,ST. VRAIN CREEK at Lyons (2)            ,APR-SEP VOLUME,bound_10_30_50_70_90,83,93,100,107,119,76,85,92,98,109,6,2010,20100607,CO
40.2180408,-105.2599886,06724000,pb01,67,62,ST. VRAIN CREEK at Lyons (2)            ,JUN-JUL VOLUME,bound_10_30_50_70_90,48,55,60,65,74,77,89,97,105,119,6,2010,20100607,CO
40.2180408,-105.2599886,06724000,pb01,69,78,ST. VRAIN CREEK at Lyons (2)            ,JUN-SEP VOLUME,bound_10_30_50_70_90,59,69,76,83,95,76,88,97,106,122,6,2010,20100607,CO
40.0063747,-105.3308256,06727000,pb01,47,52,BOULDER CREEK nr Orodell (2)            ,APR-JUL VOLUME,bound_10_30_50_70_90,34,38,40,42,46,65,73,77,81,88,6,2010,20100607,CO
40.0063747,-105.3308256,06727000,pb01,49,60,BOULDER CREEK nr Orodell (2)            ,APR-SEP VOLUME,bound_10_30_50_70_90,39,43,46,49,54,65,72,77,82,90,6,2010,20100607,CO
40.0063747,-105.3308256,06727000,pb01,67,33,BOULDER CREEK nr Orodell (2)            ,JUN-JUL VOLUME,bound_10_30_50_70_90,21,25,27,29,33,64,76,82,88,100,6,2010,20100607,CO
40.0063747,-105.3308256,06727000,pb01,69,40,BOULDER CREEK nr Orodell (2)            ,JUN-SEP VOLUME,bound_10_30_50_70_90,26,30,33,36,41,65,75,82,90,102,6,2010,20100607,CO
39.9310975,-105.2958242,06729500,pb01,47,41,SOUTH BOULDER CK nr Eldorado Spgs       ,APR-JUL VOLUME,bound_10_30_50_70_90,23,28,32,37,45,56,68,78,90,110,6,2010,20100607,CO
39.9310975,-105.2958242,06729500,pb01,49,46,SOUTH BOULDER CK nr Eldorado Spgs       ,APR-SEP VOLUME,bound_10_30_50_70_90,25,31,36,42,51,54,67,78,91,111,6,2010,20100607,CO
39.9310975,-105.2958242,06729500,pb01,67,26,SOUTH BOULDER CK nr Eldorado Spgs       ,JUN-JUL VOLUME,bound_10_30_50_70_90,9.3,14.3,18.3,23,31,36,55,70,88,119,6,2010,20100607,CO
39.9310975,-105.2958242,06729500,pb01,69,30,SOUTH BOULDER CK nr Eldorado Spgs       ,JUN-SEP VOLUME,bound_10_30_50_70_90,11.3,17.3,22,28,37,38,58,73,93,123,6,2010,20100607,CO
40.4216503,-105.2266522,06738000,pb01,47,99,BIG THOMPSON R at Canyon Mouth (2)      ,APR-JUL VOLUME,bound_10_30_50_70_90,77,86,92,99,109,78,87,93,100,110,6,2010,20100607,CO
40.4216503,-105.2266522,06738000,pb01,49,119,BIG THOMPSON R at Canyon Mouth (2)      ,APR-SEP VOLUME,bound_10_30_50_70_90,90,102,110,119,133,76,86,92,100,112,6,2010,20100607,CO
40.4216503,-105.2266522,06738000,pb01,67,70,BIG THOMPSON R at Canyon Mouth (2)      ,JUN-JUL VOLUME,bound_10_30_50_70_90,50,59,65,72,82,71,84,93,103,117,6,2010,20100607,CO
40.4216503,-105.2266522,06738000,pb01,69,88,BIG THOMPSON R at Canyon Mouth (2)      ,JUN-SEP VOLUME,bound_10_30_50_70_90,63,75,83,92,106,72,85,94,105,120,6,2010,20100607,CO
40.6644261,-105.2244272,06752000,pb01,47,245,CACHE LaPOUDRE at Canyon Mouth (2)      ,APR-JUL VOLUME,bound_10_30_50_70_90,188,210,230,250,280,77,86,94,102,114,6,2010,20100607,CO
40.6644261,-105.2244272,06752000,pb01,49,275,CACHE LaPOUDRE at Canyon Mouth (2)      ,APR-SEP VOLUME,bound_10_30_50_70_90,205,235,255,275,315,75,85,93,100,115,6,2010,20100607,CO
40.6644261,-105.2244272,06752000,pb01,67,160,CACHE LaPOUDRE at Canyon Mouth (2)      ,JUN-JUL VOLUME,bound_10_30_50_70_90,100,122,142,162,192,62,76,89,101,120,6,2010,20100607,CO
40.6644261,-105.2244272,06752000,pb01,69,186,CACHE LaPOUDRE at Canyon Mouth (2)      ,JUN-SEP VOLUME,bound_10_30_50_70_90,117,147,167,187,225,63,79,90,101,121,6,2010,20100607,CO
48.0142578,-123.1326772,12048000,ps01,67,71,DUNGENESS near Sequim                   ,JUN-JUL VOLUME,bound_10_30_50_70_90,61,72,79,86,97,86,101,111,121,137,6,2010,20100607,WA
48.0142578,-123.1326772,12048000,ps01,69,99,DUNGENESS near Sequim                   ,JUN-SEP VOLUME,bound_10_30_50_70_90,85,100,110,120,135,86,101,111,121,136,6,2010,20100607,WA
48.0548114,-123.583246,12045500,ps01,67,222,ELWHA near Port Angeles                 ,JUN-JUL VOLUME,bound_10_30_50_70_90,255,275,290,305,325,115,124,131,137,146,6,2010,20100607,WA
48.0548114,-123.583246,12045500,ps01,69,306,ELWHA near Port Angeles                 ,JUN-SEP VOLUME,bound_10_30_50_70_90,350,380,400,420,450,114,124,131,137,147,6,2010,20100607,WA
47.1512136,-121.9498317,12098500,ps01,67,220,WHITE near Buckley (12)                ,JUN-JUL VOLUME,bound_05_30_50_70_95,154,196,215,235,275,70,89,98,107,125,6,2010,20100607,WA
47.1512136,-121.9498317,12098500,ps01,69,313,WHITE near Buckley (12)                ,JUN-SEP VOLUME,bound_05_30_50_70_95,225,280,305,330,385,72,89,97,105,123,6,2010,20100607,WA
47.2837144,-121.797885,12105900,ps01,67,81.1,GREEN R below Howard Hansen (12)       ,JUN-JUL VOLUME,bound_05_30_50_70_95,35,54,63,72,91,43,67,78,89,112,6,2010,20100607,WA
47.2837144,-121.797885,12105900,ps01,69,108,GREEN R below Howard Hansen (12)       ,JUN-SEP VOLUME,bound_05_30_50_70_95,51,74,84,94,117,47,69,78,87,108,6,2010,20100607,WA
47.3701072,-121.6251008,12115000,ps01,67,27,CEDAR near Cedar Falls                  ,JUN-JUL VOLUME,bound_10_30_50_70_90,9.2,13.9,17,20,25,34,51,63,74,93,6,2010,20100607,WA
47.3701072,-121.6251008,12115000,ps01,69,34,CEDAR near Cedar Falls                  ,JUN-SEP VOLUME,bound_10_30_50_70_90,11.2,17,21,25,31,33,50,62,74,91,6,2010,20100607,WA
47.3506617,-121.6631583,12115500,ps01,67,8.2,REX near Cedar Falls                    ,JUN-JUL VOLUME,bound_10_30_50_70_90,2.1,4,5.3,6.6,8.5,26,49,65,80,104,6,2010,20100607,WA
47.3506617,-121.6631583,12115500,ps01,69,10.8,REX near Cedar Falls                    ,JUN-SEP VOLUME,bound_10_30_50_70_90,2.7,5.2,7,8.8,11.3,25,48,65,81,105,6,2010,20100607,WA
47.4170472,-121.7920539,12116500,ps01,67,18.2,CEDAR RIVER at Cedar Falls              ,JUN-JUL VOLUME,bound_10_30_50_70_90,2,8.2,12.3,16.4,23,11,45,68,90,126,6,2010,20100607,WA
47.38666667,-121.845,12117000,ps01,67,-99.9,TAYLOR CREEK nr Selleck                 ,JUN-JUL VOLUME,bound_10_30_50_70_90,3.5,4.8,5.7,6.6,7.9,-99.9,-99.9,-99.9,-99.9,-99.9,6,2010,20100607,WA
47.38666667,-121.845,12117000,ps01,69,-99.9,TAYLOR CREEK nr Selleck                 ,JUN-SEP VOLUME,bound_10_30_50_70_90,5.5,7.4,8.6,9.8,11.7,-99.9,-99.9,-99.9,-99.9,-99.9,6,2010,20100607,WA
47.7067714,-121.6001069,12147600,ps01,67,6.1,SOUTH FORK TOLT near Index              ,JUN-JUL VOLUME,bound_10_30_50_70_90,1.82,3.1,3.9,4.7,6,30,51,64,77,98,6,2010,20100607,WA
47.7067714,-121.6001069,12147600,ps01,69,8.3,SOUTH FORK TOLT near Index              ,JUN-SEP VOLUME,bound_10_30_50_70_90,2.9,4.3,5.3,6.3,7.7,35,52,64,76,93,6,2010,20100607,WA
48.6726286,-121.0728964,12175500,ps01,67,158,THUNDER CREEK near Newhalem             ,JUN-JUL VOLUME,bound_10_30_50_70_90,119,135,146,157,173,75,85,92,99,109,6,2010,20100607,WA
48.6726286,-121.0728964,12175500,ps01,69,257,THUNDER CREEK near Newhalem             ,JUN-SEP VOLUME,bound_10_30_50_70_90,200,220,235,250,270,78,86,91,97,105,6,2010,20100607,WA
48.6717922,-121.2462347,12178000,ps01,67,1054,SKAGIT at Newhalem (2)                  ,JUN-JUL VOLUME,bound_10_30_50_70_90,850,950,1020,1090,1190,81,90,97,103,113,6,2010,20100607,WA
48.6717922,-121.2462347,12178000,ps01,69,1407,SKAGIT at Newhalem (2)                  ,JUN-SEP VOLUME,bound_10_30_50_70_90,1120,1260,1350,1440,1580,80,90,96,102,112,6,2010,20100607,WA
48.5398369,-121.7431956,12193500,ps01,67,465,BAKER RIVER near Concrete               ,JUN-JUL VOLUME,bound_10_30_50_70_90,250,320,365,410,480,54,69,78,88,103,6,2010,20100607,WA
48.5398369,-121.7431956,12193500,ps01,69,687,BAKER RIVER near Concrete               ,JUN-SEP VOLUME,bound_10_30_50_70_90,335,455,535,615,735,49,66,78,90,107,6,2010,20100607,WA
37.7247219,-107.2556094,08213500,rg01,47,118,Rio Grande at Thirty Mile Bridge (2)    ,APR-JUL VOLUME,bound_10_30_50_70_90,87,95,102,109,121,74,81,86,92,103,6,2010,20100607,CO
37.7247219,-107.2556094,08213500,rg01,49,136,Rio Grande at Thirty Mile Bridge (2)    ,APR-SEP VOLUME,bound_10_30_50_70_90,93,105,115,125,142,68,77,85,92,104,6,2010,20100607,CO
37.7247219,-107.2556094,08213500,rg01,67,80,Rio Grande at Thirty Mile Bridge (2)    ,JUN-JUL VOLUME,bound_10_30_50_70_90,39,47,54,61,73,49,59,68,76,91,6,2010,20100607,CO
37.7247219,-107.2556094,08213500,rg01,69,96,Rio Grande at Thirty Mile Bridge (2)    ,JUN-SEP VOLUME,bound_10_30_50_70_90,45,57,67,77,94,47,59,70,80,98,6,2010,20100607,CO
37.7669464,-106.831433,08217500,rg01,49,345,Rio Grande at Wagon Wheel Gap (2)       ,APR-SEP VOLUME,bound_10_30_50_70_90,255,285,310,335,375,74,83,90,97,109,6,2010,20100607,CO
37.7669464,-106.831433,08217500,rg01,69,230,Rio Grande at Wagon Wheel Gap (2)       ,JUN-SEP VOLUME,bound_10_30_50_70_90,106,137,160,185,225,46,60,70,80,98,6,2010,20100607,CO
37.6569489,-106.6492083,08219500,rg01,49,132,South Fork Rio Grande at South Fork (2) ,APR-SEP VOLUME,bound_10_30_50_70_90,110,120,127,135,148,83,91,96,102,112,6,2010,20100607,CO
37.6569489,-106.6492083,08219500,rg01,69,75,South Fork Rio Grande at South Fork (2) ,JUN-SEP VOLUME,bound_10_30_50_70_90,43,53,60,68,81,57,71,80,91,108,6,2010,20100607,CO
37.6894475,-106.46115,08220000,rg01,49,531,Rio Grande nr Del Norte (2)             ,APR-SEP VOLUME,bound_10_30_50_70_90,415,455,485,515,570,78,86,91,97,107,6,2010,20100607,CO
37.6894475,-106.46115,08220000,rg01,69,337,Rio Grande nr Del Norte (2)             ,JUN-SEP VOLUME,bound_10_30_50_70_90,171,210,240,270,325,51,62,71,80,96,6,2010,20100607,CO
38.1633331,-106.290583,08227000,rg01,49,33,Saguache Creek nr Saguache (2)          ,APR-SEP VOLUME,bound_10_30_50_70_90,21,25,28,31,37,64,76,85,94,112,6,2010,20100607,CO
38.1633331,-106.290583,08227000,rg01,69,20.8,Saguache Creek nr Saguache (2)          ,JUN-SEP VOLUME,bound_10_30_50_70_90,8.1,11.9,14.9,18.2,24,39,57,72,88,115,6,2010,20100607,CO
37.3747278,-106.3347558,08236000,rg01,49,70,Alamosa Creek abv Terrace Reservoir     ,APR-SEP VOLUME,bound_10_30_50_70_90,58,63,67,71,78,83,90,96,101,111,6,2010,20100607,CO
37.3747278,-106.3347558,08236000,rg01,69,42,Alamosa Creek abv Terrace Reservoir     ,JUN-SEP VOLUME,bound_10_30_50_70_90,22,27,31,35,42,52,64,74,83,100,6,2010,20100607,CO
37.2088969,-106.1883625,08238000,rg01,37,8.7,La Jara Creek nr Capulin                ,MAR-JUL VOLUME,bound_10_30_50_70_90,11.6,12.1,12.5,13.01,13.91,133,139,144,150,160,6,2010,20100607,CO
37.2088969,-106.1883625,08238000,rg01,67,2.44,La Jara Creek nr Capulin                ,JUN-JUL VOLUME,bound_10_30_50_70_90,0.96,1.44,1.85,2.3,3.2,39,59,76,94,131,6,2010,20100607,CO
37.3550058,-106.5442036,08245000,rg01,47,64,Platoro Reservoir Inflow                ,APR-JUL VOLUME,bound_10_30_50_70_90,44,49,53,57,64,69,77,83,89,100,6,2010,20100607,CO
37.3550058,-106.5442036,08245000,rg01,49,71,Platoro Reservoir Inflow                ,APR-SEP VOLUME,bound_10_30_50_70_90,48,53,57,61,69,68,75,80,86,97,6,2010,20100607,CO
37.3550058,-106.5442036,08245000,rg01,67,40,Platoro Reservoir Inflow                ,JUN-JUL VOLUME,bound_10_30_50_70_90,23,28,32,36,43,58,70,80,90,108,6,2010,20100607,CO
37.3550058,-106.5442036,08245000,rg01,69,46,Platoro Reservoir Inflow                ,JUN-SEP VOLUME,bound_10_30_50_70_90,27,32,36,40,48,59,70,78,87,104,6,2010,20100607,CO
37.0539003,-106.1875269,08246500,rg01,49,200,Conejos River nr Mogote (2)             ,APR-SEP VOLUME,bound_10_30_50_70_90,168,184,196,210,230,84,92,98,105,115,6,2010,20100607,CO
37.0539003,-106.1875269,08246500,rg01,69,125,Conejos River nr Mogote (2)             ,JUN-SEP VOLUME,bound_10_30_50_70_90,75,91,103,116,137,60,73,82,93,110,6,2010,20100607,CO
36.9930694,-106.0386325,08247500,rg01,49,16.4,San Antonio River at Ortiz              ,APR-SEP VOLUME,bound_10_30_50_70_90,18.4,18.6,18.9,19.2,19.7,112,113,115,117,120,6,2010,20100607,CO
36.9930694,-106.0386325,08247500,rg01,69,1.47,San Antonio River at Ortiz              ,JUN-SEP VOLUME,bound_10_30_50_70_90,0.36,0.63,0.87,1.17,1.72,24,43,59,80,117,6,2010,20100607,CO
36.9822358,-106.0736333,08248000,rg01,49,74,Los Pinos River nr Ortiz                ,APR-SEP VOLUME,bound_10_30_50_70_90,69,73,76,80,86,93,99,103,108,116,6,2010,20100607,CO
36.9822358,-106.0736333,08248000,rg01,69,28,Los Pinos River nr Ortiz                ,JUN-SEP VOLUME,bound_10_30_50_70_90,14.2,18.6,22,26,32,51,66,79,93,114,6,2010,20100607,CO
37.44723035,-105.5122349,08242500,rg01,49,12.2,Ute Ck nr Fort Garland                  ,APR-SEP VOLUME,bound_10_30_50_70_90,9.7,11.7,13.2,14.9,17.9,80,96,108,122,147,6,2010,20100607,CO
37.44723035,-105.5122349,08242500,rg01,69,7.8,Ute Ck nr Fort Garland                  ,JUN-SEP VOLUME,bound_10_30_50_70_90,5.2,7.2,8.7,10.4,13.39,67,92,112,133,172,6,2010,20100607,CO
