lat,lon,ID,Basin,Target,Norm_1970_2000,Location_name,Target_Name,Prob_exceedence_levels,Fcst_min_vol,Fcst_low_vol,Fcst_mid_vol,Fcst_upp_vol,Fcst_max_vol,Fcst_min_pct,Fcst_low_pct,Fcst_mid_pct,Fcst_upp_pct,Fcst_max_pct,Issue_month,Issue_year,File_Production_date_YYYYMMDD,State
38.7336075,-106.1600183,07091000,ac01,47,23,Chalk Ck At Nathrop                     ,APR-JUL VOLUME,bound_10_30_50_70_90,14.9,21,26,31,40,65,91,113,135,174,2,2006,20060410,CO
38.7336075,-106.1600183,07091000,ac01,49,27,Chalk Ck At Nathrop                     ,APR-SEP VOLUME,bound_10_30_50_70_90,18.3,25,31,37,47,68,93,115,137,174,2,2006,20060410,CO
38.5458306,-106.0105692,07091500,ac01,47,255,Arkansas River At Salida (2)            ,APR-JUL VOLUME,bound_10_30_50_70_90,237,285,320,357,416,93,112,125,140,163,2,2006,20060410,CO
38.5458306,-106.0105692,07091500,ac01,49,310,Arkansas River At Salida (2)            ,APR-SEP VOLUME,bound_10_30_50_70_90,287,346,390,436,509,93,112,126,141,164,2,2006,20060410,CO
38.1861106,-105.4836125,07095000,ac01,47,16.1,Grape Creek Near Westcliffe             ,APR-JUL VOLUME,bound_10_30_50_70_90,2.97,5.33,10,16.2,28,18,33,62,101,174,2,2006,20060410,CO
38.1861106,-105.4836125,07095000,ac01,49,19.6,Grape Creek Near Westcliffe             ,APR-SEP VOLUME,bound_10_30_50_70_90,2.98,6.62,12.5,18.7,30,15,34,64,95,153,2,2006,20060410,CO
38.2716694,-104.718033,07099400,ac01,47,385,Pueblo Reservoir Inflow (2)             ,APR-JUL VOLUME,bound_10_30_50_70_90,268,360,430,507,631,70,94,112,132,164,2,2006,20060410,CO
38.2716694,-104.718033,07099400,ac01,49,485,Pueblo Reservoir Inflow (2)             ,APR-SEP VOLUME,bound_10_30_50_70_90,349,458,540,629,772,72,94,111,130,159,2,2006,20060410,CO
37.4200128,-105.052778,07114000,ac01,47,11.3,Cucharas River At Boyd Ranch Nr La Veta ,APR-JUL VOLUME,bound_10_30_50_70_90,1.88,3.96,5.3,7.84,12.5,17,35,47,69,111,2,2006,20060410,CO
37.4200128,-105.052778,07114000,ac01,49,13,Cucharas River At Boyd Ranch Nr La Veta ,APR-SEP VOLUME,bound_10_30_50_70_90,2.93,4.3,6.7,9.51,14.5,23,33,52,73,112,2,2006,20060410,CO
37.7277817,-105.351395,07111000,ac01,47,12.3,Huerfano River Near Redwing             ,APR-JUL VOLUME,bound_10_30_50_70_90,5.05,5.87,6.7,8.63,11.9,41,48,54,70,97,2,2006,20060410,CO
37.7277817,-105.351395,07111000,ac01,49,15.5,Huerfano River Near Redwing             ,APR-SEP VOLUME,bound_10_30_50_70_90,6.64,7.57,8.5,10.8,14.6,43,49,55,70,94,2,2006,20060410,CO
37.1708522,-104.5091519,07124500,ac01,37,34,Trinidad Lake Inflow                    ,MAR-JUL VOLUME,bound_10_30_50_70_90,6.05,12.6,18.7,28,44,18,37,55,82,129,2,2006,20060410,CO
37.1708522,-104.5091519,07124500,ac01,49,44,Trinidad Lake Inflow                    ,APR-SEP VOLUME,bound_10_30_50_70_90,11.1,17.8,27,38,59,25,40,61,86,134,2,2006,20060410,CO
36.6805883,-104.7861069,07203000,ac01,36,7,Vermejo River nr Dawson                 ,MAR-JUN VOLUME,bound_10_30_50_70_90,0.56,1.35,2.8,4.77,8.6,8,19,40,68,123,2,2006,20060410,NM
36.5319769,-105.2291733,07206000,ac01,36,11.7,Eagle Nest Reservoir Inflow             ,MAR-JUN VOLUME,bound_10_30_50_70_90,0.7,1.4,3.6,5.81,10,6,12,31,50,85,2,2006,20060410,NM
36.5197578,-104.9788914,07207000,ac01,36,15.9,Cimarron River Nr Cimarron (2)          ,MAR-JUN VOLUME,bound_10_30_50_70_90,0.48,2.4,5,8.21,14.4,3,15,31,52,91,2,2006,20060410,NM
36.5736458,-104.9466678,07207500,ac01,36,6.7,Ponil Creek nr Cimarron                 ,MAR-JUN VOLUME,bound_10_30_50_70_90,0.33,0.87,2.1,3.83,7.33,5,13,31,57,109,2,2006,20060410,NM
36.3722583,-104.9700025,07208500,ac01,36,7.1,Rayado Ck at Sauble Ranch nr Cimarron   ,MAR-JUN VOLUME,bound_10_30_50_70_90,0.71,1.32,2.4,3.81,6.47,10,19,34,54,91,2,2006,20060410,NM
35.8908731,-105.1636194,07216500,ac01,36,14.6,Mora River nr Golondrinas (2)           ,MAR-JUN VOLUME,bound_10_30_50_70_90,0.44,2.3,4.8,8.21,14.9,3,16,33,56,102,2,2006,20060410,NM
35.4078,-104.1691,07223500,ac01,36,71,Conchas Reservoir Inflow (2)            ,MAR-JUN VOLUME,bound_10_30_50_70_90,2.1,10.6,26,53,96,3,15,37,75,135,2,2006,20060410,NM
48.9846011,-119.6184097,12442500,cm01,47,1350,SIMILKAMEEN near Nighthawk (1)          ,APR-JUL VOLUME,bound_05_30_50_70_95,945,1170,1270,1370,1600,70,87,94,101,119,2,2006,20060410,WA
48.9846011,-119.6184097,12442500,cm01,49,1450,SIMILKAMEEN near Nighthawk (1)          ,APR-SEP VOLUME,bound_05_30_50_70_95,785,1190,1370,1550,1960,54,82,94,107,135,2,2006,20060410,WA
48.632375,-119.461723,12445000,cm01,47,1580,OKANOGAN near Tonasket (1)              ,APR-JUL VOLUME,bound_05_30_50_70_95,785,1270,1490,1710,2190,50,80,94,108,139,2,2006,20060410,WA
48.632375,-119.461723,12445000,cm01,49,1770,OKANOGAN near Tonasket (1)              ,APR-SEP VOLUME,bound_05_30_50_70_95,865,1420,1670,1920,2470,49,80,94,108,140,2,2006,20060410,WA
48.28138889,-119.7033333,12447200,cm01,47,1635,OKANOGAN at Malott (1)                  ,APR-JUL VOLUME,bound_05_30_50_70_95,810,1310,1540,1770,2270,50,80,94,108,139,2,2006,20060410,WA
48.28138889,-119.7033333,12447200,cm01,49,1826,OKANOGAN at Malott (1)                  ,APR-SEP VOLUME,bound_05_30_50_70_95,890,1460,1720,1980,2550,49,80,94,108,140,2,2006,20060410,WA
48.5332044,-119.7483994,12446500,cm01,47,18.7,Salmon Creek nr Conconully              ,APR-JUL VOLUME,bound_10_30_50_70_90,19.5,26,31,36,45,104,139,166,193,241,2,2006,20060410,WA
48.5332044,-119.7483994,12446500,cm01,49,19.7,Salmon Creek nr Conconully              ,APR-SEP VOLUME,bound_10_30_50_70_90,21,28,33,39,48,107,142,168,198,244,2,2006,20060410,WA
48.8340404,-119.6967417,12442000,cm01,47,28,TOATS COULEE CREEK nr Loomis            ,APR-JUL VOLUME,bound_10_30_50_70_90,26,36,42,48,58,93,129,150,171,207,2,2006,20060410,WA
48.8340404,-119.6967417,12442000,cm01,49,30,TOATS COULEE CREEK nr Loomis            ,APR-SEP VOLUME,bound_10_30_50_70_90,29,39,45,51,61,97,130,150,170,203,2,2006,20060410,WA
48.4287567,-120.0211883,12449600,cm01,47,11.1,Beaver Creek blw SF nr Twisp            ,APR-JUL VOLUME,bound_10_30_50_70_90,11.8,15.5,18,21,24,106,140,162,189,216,2,2006,20060410,WA
48.4287567,-120.0211883,12449600,cm01,49,12.1,Beaver Creek blw SF nr Twisp            ,APR-SEP VOLUME,bound_10_30_50_70_90,13.2,17,19.6,22,26,109,140,162,182,215,2,2006,20060410,WA
48.0773639,-119.9850722,12449950,cm01,47,910,METHOW RIVER near Pateros               ,APR-JUL VOLUME,bound_10_30_50_70_90,710,810,880,950,1050,78,89,97,104,115,2,2006,20060410,WA
48.0773639,-119.9850722,12449950,cm01,49,985,METHOW RIVER near Pateros               ,APR-SEP VOLUME,bound_10_30_50_70_90,640,825,955,1085,1275,65,84,97,110,129,2,2006,20060410,WA
48.3295803,-120.6917669,12451000,cm01,47,700,STEHEKIN near STEHEKIN                  ,APR-JUL VOLUME,bound_10_30_50_70_90,620,675,710,745,800,89,96,101,106,114,2,2006,20060410,WA
48.3295803,-120.6917669,12451000,cm01,49,830,STEHEKIN near STEHEKIN                  ,APR-SEP VOLUME,bound_10_30_50_70_90,730,800,845,890,960,88,96,102,107,116,2,2006,20060410,WA
47.8345808,-120.0131253,12452500,cm01,47,1050,CHELAN RIVER near Chelan                ,APR-JUL VOLUME,bound_10_30_50_70_90,920,1010,1070,1130,1220,88,96,102,108,116,2,2006,20060410,WA
47.8345808,-120.0131253,12452500,cm01,49,1190,CHELAN RIVER near Chelan                ,APR-SEP VOLUME,bound_10_30_50_70_90,1020,1130,1200,1270,1380,86,95,101,107,116,2,2006,20060410,WA
47.8184617,-120.4231439,12452800,cm01,47,215,ENTIAT RIVER nr Ardenvoir               ,APR-JUL VOLUME,bound_10_30_50_70_90,192,215,230,245,270,89,100,107,114,126,2,2006,20060410,WA
47.8184617,-120.4231439,12452800,cm01,49,240,ENTIAT RIVER nr Ardenvoir               ,APR-SEP VOLUME,bound_10_30_50_70_90,213,240,255,270,295,89,100,106,112,123,2,2006,20060410,WA
47.7628994,-120.6662039,12457000,cm01,47,1080,WENATCHEE at Plain                      ,APR-JUL VOLUME,bound_10_30_50_70_90,1010,1090,1140,1190,1270,94,101,106,110,118,2,2006,20060410,WA
47.7628994,-120.6662039,12457000,cm01,49,1200,WENATCHEE at Plain                      ,APR-SEP VOLUME,bound_10_30_50_70_90,1080,1190,1260,1330,1440,90,99,105,111,120,2,2006,20060410,WA
47.3736,-120.2499,12457005,cm01,59,138,STEMILT CK nr Wenatchee (miner's in)    ,MAY-SEP VOLUME,bound_10_30_50_70_90,122,154,176,198,230,88,112,128,143,167,2,2006,20060410,WA
47.5409539,-120.7200872,12458000,cm01,47,320,ICICLE CREEK near Leavenworth           ,APR-JUL VOLUME,bound_10_30_50_70_90,280,300,315,330,350,88,94,98,103,109,2,2006,20060410,WA
47.5409539,-120.7200872,12458000,cm01,49,345,ICICLE CREEK near Leavenworth           ,APR-SEP VOLUME,bound_10_30_50_70_90,305,330,345,360,385,88,96,100,104,112,2,2006,20060410,WA
47.5831778,-120.613975,12459000,cm01,47,1480,WENATCHEE R. at Peshastin               ,APR-JUL VOLUME,bound_10_30_50_70_90,1009,1313,1520,1725,2030,68,89,103,117,137,2,2006,20060410,WA
47.5831778,-120.613975,12459000,cm01,49,1640,WENATCHEE R. at Peshastin               ,APR-SEP VOLUME,bound_10_30_50_70_90,1249,1511,1690,1869,2130,76,92,103,114,130,2,2006,20060410,WA
47.3323517,-120.0811708,12462600,cm01,47,59000,COLUMBIA R. bl Rock Island Dam (2)      ,APR-JUL VOLUME,bound_10_30_50_70_90,47088,53942,58600,63260,70110,80,91,99,107,119,2,2006,20060410,WA
47.3323517,-120.0811708,12462600,cm01,49,69500,COLUMBIA R. bl Rock Island Dam (2)      ,APR-SEP VOLUME,bound_10_30_50_70_90,58251,64830,69300,73770,80350,84,93,100,106,116,2,2006,20060410,WA
47.3212242,-121.3362047,12474500,cm01,47,121,KEECHELUS LAKE INFLOW                   ,APR-JUL VOLUME,bound_10_30_50_70_90,109,123,133,143,157,90,102,110,118,130,2,2006,20060410,WA
47.3212242,-121.3362047,12474500,cm01,49,133,KEECHELUS LAKE INFLOW                   ,APR-SEP VOLUME,bound_10_30_50_70_90,120,135,146,157,172,90,102,110,118,129,2,2006,20060410,WA
47.2612261,-121.2034242,12476000,cm01,47,111,KACHESS LAKE INFLOW                     ,APR-JUL VOLUME,bound_10_30_50_70_90,101,113,121,129,141,91,102,109,116,127,2,2006,20060410,WA
47.2612261,-121.2034242,12476000,cm01,49,120,KACHESS LAKE INFLOW                     ,APR-SEP VOLUME,bound_10_30_50_70_90,108,121,130,139,152,90,101,108,116,127,2,2006,20060410,WA
47.2445622,-121.0678642,12479000,cm01,47,410,CLE ELUM LAKE INFLOW                    ,APR-JUL VOLUME,bound_10_30_50_70_90,395,430,455,480,515,96,105,111,117,126,2,2006,20060410,WA
47.2445622,-121.0678642,12479000,cm01,49,450,CLE ELUM LAKE INFLOW                    ,APR-SEP VOLUME,bound_10_30_50_70_90,430,470,500,530,570,96,104,111,118,127,2,2006,20060410,WA
47.1928975,-120.9498047,12479500,cm01,47,820,YAKIMA at Cle Elum                      ,APR-JUL VOLUME,bound_10_30_50_70_90,775,850,900,950,1025,95,104,110,116,125,2,2006,20060410,WA
47.1928975,-120.9498047,12479500,cm01,49,900,YAKIMA at Cle Elum                      ,APR-SEP VOLUME,bound_10_30_50_70_90,855,935,990,1045,1125,95,104,110,116,125,2,2006,20060410,WA
47.2465092,-120.8611925,12480000,cm01,47,143,TEANAWAY near Cle Elum                  ,APR-JUL VOLUME,bound_10_30_50_70_90,146,160,170,180,194,102,112,119,126,136,2,2006,20060410,WA
47.2465092,-120.8611925,12480000,cm01,49,146,TEANAWAY near Cle Elum                  ,APR-SEP VOLUME,bound_10_30_50_70_90,150,164,174,184,198,103,112,119,126,136,2,2006,20060410,WA
46.8726139,-121.292586,12488000,cm01,47,122,BUMPING LAKE INFLOW                     ,APR-JUL VOLUME,bound_10_30_50_70_90,123,137,146,155,169,101,112,120,127,139,2,2006,20060410,WA
46.8726139,-121.292586,12488000,cm01,49,132,BUMPING LAKE INFLOW                     ,APR-SEP VOLUME,bound_10_30_50_70_90,132,147,158,169,184,100,111,120,128,139,2,2006,20060410,WA
46.9776161,-121.168696,12488500,cm01,47,108,AMERICAN RIVER near Nile                ,APR-JUL VOLUME,bound_10_30_50_70_90,107,118,126,134,145,99,109,117,124,134,2,2006,20060410,WA
46.9776161,-121.168696,12488500,cm01,49,118,AMERICAN RIVER near Nile                ,APR-SEP VOLUME,bound_10_30_50_70_90,116,129,137,145,158,98,109,116,123,134,2,2006,20060410,WA
46.6626175,-121.1248017,12491500,cm01,47,205,RIMROCK LAKE INFLOW                     ,APR-JUL VOLUME,bound_10_30_50_70_90,202,222,235,250,270,99,108,115,122,132,2,2006,20060410,WA
46.6626175,-121.1248017,12491500,cm01,49,240,RIMROCK LAKE INFLOW                     ,APR-SEP VOLUME,bound_10_30_50_70_90,233,260,275,290,315,97,108,115,121,131,2,2006,20060410,WA
46.7454017,-120.76924,12494000,cm01,47,760,NACHES near Naches                      ,APR-JUL VOLUME,bound_10_30_50_70_90,770,835,880,925,990,101,110,116,122,130,2,2006,20060410,WA
46.7454017,-120.76924,12494000,cm01,49,835,NACHES near Naches                      ,APR-SEP VOLUME,bound_10_30_50_70_90,835,915,965,1015,1095,100,110,116,122,131,2,2006,20060410,WA
46.53596,-120.4734,12502500,cm01,47,30,AHTANUM CREEK at Union Gap              ,APR-JUL VOLUME,bound_10_30_50_70_90,27,34,38,42,49,90,113,127,140,163,2,2006,20060410,WA
46.53596,-120.4734,12502500,cm01,49,32,AHTANUM CREEK at Union Gap              ,APR-SEP VOLUME,bound_10_30_50_70_90,29,35,40,45,51,91,109,125,141,159,2,2006,20060410,WA
46.4970717,-120.4428397,12505001,cm01,47,1730,YAKIMA near Parker                      ,APR-JUL VOLUME,bound_10_30_50_70_90,1780,1950,2070,2190,2360,103,113,120,127,136,2,2006,20060410,WA
46.4970717,-120.4428397,12505001,cm01,49,1920,YAKIMA near Parker                      ,APR-SEP VOLUME,bound_10_30_50_70_90,1980,2170,2300,2430,2620,103,113,120,127,136,2,2006,20060410,WA
45.8298572,-118.1699503,14010000,cm01,39,81,SF WALLA WALLA near Milton-Freewater    ,MAR-SEP VOLUME,bound_10_30_50_70_90,78,86,92,98,106,96,106,114,121,131,2,2006,20060410,OR
45.8298572,-118.1699503,14010000,cm01,47,54,SF WALLA WALLA near Milton-Freewater    ,APR-JUL VOLUME,bound_10_30_50_70_90,49,56,60,64,71,91,104,111,119,131,2,2006,20060410,OR
45.8298572,-118.1699503,14010000,cm01,49,67,SF WALLA WALLA near Milton-Freewater    ,APR-SEP VOLUME,bound_10_30_50_70_90,63,70,75,80,87,94,104,112,119,130,2,2006,20060410,OR
45.8684672,-118.3674633,14011800,cm01,27,7.4,COUSE CREEK near Milton-Freewater       ,FEB-JUL VOLUME,bound_10_30_50_70_90,8.9,9.7,10.2,10.7,11.5,120,131,138,145,155,2,2006,20060410,OR
45.8684672,-118.3674633,14011800,cm01,47,4,COUSE CREEK near Milton-Freewater       ,APR-JUL VOLUME,bound_10_30_50_70_90,4.7,5.5,6,6.5,7.3,117,138,150,162,182,2,2006,20060410,OR
39.1721306,-119.907963,10336715,cn01,37,1197,MARLETTE LAKE inflow (ACRE-FEET)        ,MAR-JUL VOLUME,bound_10_30_50_70_90,1050,1440,1700,1960,2350,88,120,142,164,196,2,2006,20060410,NV
39.1721306,-119.907963,10336715,cn01,47,911,MARLETTE LAKE inflow (ACRE-FEET)        ,APR-JUL VOLUME,bound_10_30_50_70_90,650,1040,1300,1560,1950,71,114,143,171,214,2,2006,20060410,NV
39.4315725,-120.2379792,10343500,cn01,37,7.1,SAGEHEN CK nr Truckee CA               ,MAR-JUL VOLUME,bound_10_30_50_70_90,4.57,6.57,8.4,10.74,15.44,64,93,118,151,217,2,2006,20060410,CA
39.4315725,-120.2379792,10343500,cn01,47,6.3,SAGEHEN CK nr Truckee CA               ,APR-JUL VOLUME,bound_10_30_50_70_90,3.78,5.64,7.4,9.71,14.5,60,90,117,154,230,2,2006,20060410,CA
39.4357411,-120.084366,10344400,cn01,37,90,L TRUCKEE R abv Boca Reservoir          ,MAR-JUL VOLUME,bound_10_30_50_70_90,52,81,108,145,223,58,90,120,161,248,2,2006,20060410,CA
39.4357411,-120.084366,10344400,cn01,47,80,L TRUCKEE R abv Boca Reservoir          ,APR-JUL VOLUME,bound_10_30_50_70_90,44,68,92,124,194,55,85,115,155,242,2,2006,20060410,CA
39.4279639,-120.0340872,10346000,cn01,37,306,TRUCKEE R nr Farad Ca                  ,MAR-JUL VOLUME,bound_10_30_50_70_90,270,345,400,455,530,88,113,131,149,173,2,2006,20060410,CA
39.4279639,-120.0340872,10346000,cn01,47,260,TRUCKEE R nr Farad Ca                  ,APR-JUL VOLUME,bound_10_30_50_70_90,210,280,325,370,440,81,108,125,142,169,2,2006,20060410,CA
39.3776889,-119.7435183,10349300,cn01,47,7.9,STEAMBOAT CK at Steamboat (2)           ,APR-JUL VOLUME,bound_10_30_50_70_90,4.69,7.9,10,12.1,15.3,59,100,127,153,194,2,2006,20060410,NV
39.3618544,-119.8279658,10348900,cn01,37,4531,GALENA CK nr Steamboat NV (Acre Feet)  ,MAR-JUL VOLUME,bound_10_30_50_70_90,3417,4585,5600,6840,9178,75,101,124,151,203,2,2006,20060410,NV
39.3618544,-119.8279658,10348900,cn01,47,4345,GALENA CK nr Steamboat NV (Acre Feet)  ,APR-JUL VOLUME,bound_10_30_50_70_90,3229,4311,5250,6393,8535,74,99,121,147,196,2,2006,20060410,NV
38.8449064,-119.7046189,10309000,cn01,37,210,E F CARSON R nr Gardnerville Nv        ,MAR-JUL VOLUME,bound_10_30_50_70_90,210,240,260,280,310,100,114,124,133,148,2,2006,20060410,NV
38.8449064,-119.7046189,10309000,cn01,47,189,E F CARSON R nr Gardnerville Nv        ,APR-JUL VOLUME,bound_10_30_50_70_90,190,215,235,255,280,101,114,124,135,148,2,2006,20060410,NV
38.7696278,-119.8337892,10310000,cn01,37,61,W F CARSON R nr Woodfords Ca           ,MAR-JUL VOLUME,bound_10_30_50_70_90,66,74,80,86,94,108,121,131,141,154,2,2006,20060410,CA
38.7696278,-119.8337892,10310000,cn01,47,56,W F CARSON R nr Woodfords Ca           ,APR-JUL VOLUME,bound_10_30_50_70_90,58,66,72,78,86,104,118,129,139,154,2,2006,20060410,CA
39.1762981,-119.805738,10311200,cn01,37,1.3,ASH CANYON CK nr Carson City            ,MAR-JUL VOLUME,bound_10_30_50_70_90,0.25,0.6,1.8,3,4.4,19,46,138,231,338,2,2006,20060410,NV
39.1537981,-119.8079597,10311100,cn01,37,0.44,KING CANYON CK nr Carson City           ,MAR-JUL VOLUME,bound_10_30_50_70_90,0.05,0.1,0.6,1.2,2.2,11,23,136,273,500,2,2006,20060410,NV
39.1076875,-119.7132333,10311000,cn01,37,220,CARSON R nr Carson City Nv             ,MAR-JUL VOLUME,bound_10_30_50_70_90,215,255,285,315,355,98,116,130,143,161,2,2006,20060410,NV
39.1076875,-119.7132333,10311000,cn01,47,188,CARSON R nr Carson City Nv             ,APR-JUL VOLUME,bound_10_30_50_70_90,180,220,245,270,310,96,117,130,144,165,2,2006,20060410,NV
39.2929733,-119.2515469,10312000,cn01,37,210,CARSON R at Fort Churchill NV          ,MAR-JUL VOLUME,bound_10_30_50_70_90,230,270,300,330,370,110,129,143,157,176,2,2006,20060410,NV
39.2929733,-119.2515469,10312000,cn01,47,178,CARSON R at Fort Churchill NV          ,APR-JUL VOLUME,bound_10_30_50_70_90,182,220,250,280,320,102,124,140,157,180,2,2006,20060410,NV
38.3278,-119.2139,10293001,cn01,38,76,E WALKER R nr Bridgeport Ca.           ,MAR-AUG VOLUME,bound_10_30_50_70_90,71,97,115,133,159,93,128,151,175,209,2,2006,20060410,CA
38.3278,-119.2139,10293001,cn01,48,67,E WALKER R nr Bridgeport Ca.           ,APR-AUG VOLUME,bound_10_30_50_70_90,59,83,100,117,141,88,124,149,175,210,2,2006,20060410,CA
38.3796367,-119.450165,10296000,cn01,37,164,W WALKER R blw L Walker nr Coleville CA,MAR-JUL VOLUME,bound_10_30_50_70_90,195,215,230,245,265,119,131,140,149,162,2,2006,20060410,CA
38.3796367,-119.450165,10296000,cn01,47,156,W WALKER R blw L Walker nr Coleville CA,APR-JUL VOLUME,bound_10_30_50_70_90,185,200,215,230,245,119,128,138,147,157,2,2006,20060410,CA
38.513245,-119.4498872,10296500,cn01,37,169,W WALKER R nr Coleville CA             ,MAR-JUL VOLUME,bound_10_30_50_70_90,237,242,247,252,257,140,143,146,149,152,2,2006,20060410,CA
38.513245,-119.4498872,10296500,cn01,47,160,W WALKER R nr Coleville CA             ,APR-JUL VOLUME,bound_10_30_50_70_90,211,216,221,226,231,132,135,138,141,144,2,2006,20060410,CA
41.8823903,-120.1749508,10360900,cn01,47,12,BIDWELL CK nr Fort Bidwell              ,APR-JUL VOLUME,bound_10_30_50_70_90,9.6,14.9,19,23,29,80,124,158,192,242,2,2006,20060410,CA
41.7385,-120.3533,DAVISCK ,cn01,47,7233,Davis Creek (acre-feet)                 ,APR-JUL VOLUME,bound_10_30_50_70_90,5578,8801,12000,16361,25814,77,122,166,226,357,2,2006,20060410,CA
41.7385,-120.3533,DAVISCK ,cn01,49,7991,Davis Creek (acre-feet)                 ,APR-SEP VOLUME,bound_10_30_50_70_90,6359,9737,13000,17356,26574,80,122,163,217,333,2,2006,20060410,CA
41.5105,-120.1709,NV-16   ,cn01,47,3.6,DEEP CK nr Cedarville Ca               ,APR-JUL VOLUME,bound_10_30_50_70_90,2.51,3.96,5.2,6.4,8.3,70,110,144,178,231,2,2006,20060410,CA
41.3123958,-120.1252194,10360230,cn01,47,4.3,EAGLE CK nr Eagleville Ca              ,APR-JUL VOLUME,bound_10_30_50_70_90,3.39,5.1,6.6,8.1,10.3,79,119,153,188,240,2,2006,20060410,CA
41.6414,-120.2164,NV-18   ,cn01,47,4.1,MILL CK nr Cedarville Ca               ,APR-JUL VOLUME,bound_10_30_50_70_90,3.77,5.1,6.5,7.9,10,92,124,159,193,244,2,2006,20060410,CA
41.2526961,-115.2564467,10315500,cn01,37,45,MARY'S R nr Deeth Nv                   ,MAR-JUL VOLUME,bound_10_30_50_70_90,47,58,65,72,83,104,129,144,160,184,2,2006,20060410,NV
41.2526961,-115.2564467,10315500,cn01,47,39,MARY'S R nr Deeth Nv                   ,APR-JUL VOLUME,bound_10_30_50_70_90,37,48,55,62,73,95,123,141,159,187,2,2006,20060410,NV
40.6907606,-115.477003,10316500,cn01,37,31,LAMOILLE CK nr Lamoille Nv             ,MAR-JUL VOLUME,bound_10_30_50_70_90,35,40,43,46,51,113,129,139,148,165,2,2006,20060410,NV
40.6907606,-115.477003,10316500,cn01,47,30,LAMOILLE CK nr Lamoille Nv             ,APR-JUL VOLUME,bound_10_30_50_70_90,33,38,41,44,49,110,127,137,147,163,2,2006,20060410,NV
41.1804736,-115.4939536,10317500,cn01,37,44,N F HUMBOLDT R at Devils Gate           ,MAR-JUL VOLUME,bound_10_30_50_70_90,37,51,60,69,83,84,116,136,157,189,2,2006,20060410,NV
41.1804736,-115.4939536,10317500,cn01,47,34,N F HUMBOLDT R at Devils Gate           ,APR-JUL VOLUME,bound_10_30_50_70_90,28,38,45,52,62,82,112,132,153,182,2,2006,20060410,NV
40.9360317,-115.6245106,10318500,cn01,37,182,HUMBOLDT R nr Elko Nv                  ,MAR-JUL VOLUME,bound_10_30_50_70_90,176,226,260,295,345,97,124,143,162,190,2,2006,20060410,NV
40.9360317,-115.6245106,10318500,cn01,47,154,HUMBOLDT R nr Elko Nv                  ,APR-JUL VOLUME,bound_10_30_50_70_90,124,178,215,250,305,81,116,140,162,198,2,2006,20060410,NV
40.6849236,-115.8134003,10320000,cn01,37,84,S FORK HUMBOLDT R at Dixie              ,MAR-JUL VOLUME,bound_10_30_50_70_90,45,86,114,142,183,54,102,136,169,218,2,2006,20060410,NV
40.6849236,-115.8134003,10320000,cn01,47,76,S FORK HUMBOLDT R at Dixie              ,APR-JUL VOLUME,bound_10_30_50_70_90,29,71,100,129,171,38,93,132,170,225,2,2006,20060410,NV
40.7276972,-116.0092419,10321000,cn01,37,274,HUMBOLDT R nr Carlin Nv                ,MAR-JUL VOLUME,bound_10_30_50_70_90,280,340,380,420,480,102,124,139,153,175,2,2006,20060410,NV
40.7276972,-116.0092419,10321000,cn01,47,238,HUMBOLDT R nr Carlin Nv                ,APR-JUL VOLUME,bound_10_30_50_70_90,225,280,320,360,415,95,118,134,151,174,2,2006,20060410,NV
40.6074175,-116.2017444,10322500,cn01,37,300,HUMBOLDT R at Palisades Nv             ,MAR-JUL VOLUME,bound_10_30_50_70_90,315,375,415,455,515,105,125,138,152,172,2,2006,20060410,NV
40.6074175,-116.2017444,10322500,cn01,47,250,HUMBOLDT R at Palisades Nv             ,APR-JUL VOLUME,bound_10_30_50_70_90,235,300,340,380,445,94,120,136,152,178,2,2006,20060410,NV
40.8249103,-116.5842589,10324500,cn01,37,28,ROCK CK nr Battle Mtn. Nv              ,MAR-JUL VOLUME,bound_10_30_50_70_90,13.2,29,39,49,65,47,104,139,175,232,2,2006,20060410,NV
40.8249103,-116.5842589,10324500,cn01,47,18.3,ROCK CK nr Battle Mtn. Nv              ,APR-JUL VOLUME,bound_10_30_50_70_90,4,16.5,25,33,46,22,90,137,180,251,2,2006,20060410,NV
38.8499286,-117.4675969,10325500,cn01,37,8.2,REESE R nr Ione Nv                     ,MAR-JUL VOLUME,bound_10_30_50_70_90,2.3,7.3,10.6,13.9,18.9,28,89,129,170,230,2,2006,20060410,NV
38.8499286,-117.4675969,10325500,cn01,47,7.8,REESE R nr Ione Nv                     ,APR-JUL VOLUME,bound_10_30_50_70_90,5.2,8.1,10,12,15,67,104,128,154,192,2,2006,20060410,NV
40.9921256,-117.3176167,10327500,cn01,37,270,HUMBOLDT R at Comus Nv                 ,MAR-JUL VOLUME,bound_10_30_50_70_90,285,360,410,460,535,106,133,152,170,198,2,2006,20060410,NV
40.9921256,-117.3176167,10327500,cn01,47,225,HUMBOLDT R at Comus Nv                 ,APR-JUL VOLUME,bound_10_30_50_70_90,205,280,330,380,455,91,124,147,169,202,2,2006,20060410,NV
41.415175,-117.3737347,10329000,cn01,37,12.4,L HUMBOLDT R nr Paradise Nv            ,MAR-JUL VOLUME,bound_10_30_50_70_90,0.6,9.8,16,22,31,5,79,129,177,250,2,2006,20060410,NV
41.415175,-117.3737347,10329000,cn01,47,11,L HUMBOLDT R nr Paradise Nv            ,APR-JUL VOLUME,bound_10_30_50_70_90,2.4,9.3,14,19.1,26,22,85,127,174,236,2,2006,20060410,NV
41.5346175,-117.4179047,10329500,cn01,37,24,MARTIN CK nr Paradise Nv               ,MAR-JUL VOLUME,bound_10_30_50_70_90,15.2,24,30,36,45,63,100,125,150,188,2,2006,20060410,NV
41.5346175,-117.4179047,10329500,cn01,47,18.7,MARTIN CK nr Paradise Nv               ,APR-JUL VOLUME,bound_10_30_50_70_90,10.3,17.8,23,28,35,55,95,123,150,187,2,2006,20060410,NV
40.6926,-118.2034,10333000,cn01,37,203,HUMBOLDT R nr Imlay Nv                 ,MAR-JUL VOLUME,bound_10_30_50_70_90,202,285,340,395,480,100,140,167,195,236,2,2006,20060410,NV
40.6926,-118.2034,10333000,cn01,47,171,HUMBOLDT R nr Imlay Nv                 ,APR-JUL VOLUME,bound_10_30_50_70_90,135,220,280,340,425,79,129,164,199,249,2,2006,20060410,NV
41.7748933,-117.8051425,10353500,cn01,47,16,QUINN R nr McDermitt Nv                ,APR-JUL VOLUME,bound_10_30_50_70_90,10.5,15.3,20,25,32,66,96,125,156,200,2,2006,20060410,NV
41.9832214,-117.5843056,10353000,cn01,47,10.4,E. FORK QUINN R nr McDermitt            ,APR-JUL VOLUME,bound_10_30_50_70_90,7.8,10,13,16,20,75,96,125,154,192,2,2006,20060410,NV
41.9665572,-117.8318119,10352500,cn01,36,19.9,MCDERMITT CK nr McDermitt               ,MAR-JUN VOLUME,bound_10_30_50_70_90,13.2,19.6,24,28,35,66,98,121,141,176,2,2006,20060410,NV
41.9665572,-117.8318119,10352500,cn01,47,14,MCDERMITT CK nr McDermitt               ,APR-JUL VOLUME,bound_10_30_50_70_90,12,14.8,19,23,29,86,106,136,164,207,2,2006,20060410,NV
40.8235356,-115.1369928,10244720,cn01,47,6.9,FRANKLIN R nr Arthur                    ,APR-JUL VOLUME,bound_10_30_50_70_90,3.27,7.3,10,12.7,16.7,47,106,145,184,242,2,2006,20060410,NV
39.2124292,-117.1134217,10249280,cn01,47,4,KINGSTON CK nr Austin Nv               ,APR-JUL VOLUME,bound_10_30_50_70_90,2.86,5.3,7,8.7,11.1,72,132,175,218,278,2,2006,20060410,NV
39.20133,-114.688345,10244950,cn01,47,2.7,STEPTOE CK nr Ely                       ,APR-JUL VOLUME,bound_10_30_50_70_90,0.19,1.8,3.1,4.4,6.3,7,67,115,163,233,2,2006,20060410,NV
48.8935756,-115.0879458,12301300,cu01,47,136,TOBACCO RIVER nr Eureka                 ,APR-JUL VOLUME,bound_10_30_50_70_90,109,131,147,163,185,80,96,108,120,136,2,2006,20060410,MT
48.8935756,-115.0879458,12301300,cu01,49,150,TOBACCO RIVER nr Eureka                 ,APR-SEP VOLUME,bound_10_30_50_70_90,120,145,162,179,206,80,97,108,119,137,2,2006,20060410,MT
48.40079,-115.3207192,12301933,cu01,47,5640,LIBBY RES Inflow (12)                  ,APR-JUL VOLUME,bound_05_30_50_70_95,4110,5160,5640,6120,7170,73,91,100,109,127,2,2006,20060410,MT
48.40079,-115.3207192,12301933,cu01,49,6640,LIBBY RES Inflow (12)                  ,APR-SEP VOLUME,bound_05_30_50_70_95,5110,6160,6640,7120,8170,77,93,100,107,123,2,2006,20060410,MT
48.3555122,-115.314885,12302055,cu01,47,230,FISHER RIVER nr Libby                   ,APR-JUL VOLUME,bound_10_30_50_70_90,180,231,265,300,350,78,100,115,130,152,2,2006,20060410,MT
48.3555122,-115.314885,12302055,cu01,49,245,FISHER RIVER nr Libby                   ,APR-SEP VOLUME,bound_10_30_50_70_90,191,244,280,315,370,78,100,114,129,151,2,2006,20060410,MT
48.5618867,-115.97018,12304500,cu01,47,465,YAAK RIVER nr Troy                      ,APR-JUL VOLUME,bound_10_30_50_70_90,335,400,445,490,555,72,86,96,105,119,2,2006,20060410,MT
48.5618867,-115.97018,12304500,cu01,49,490,YAAK RIVER nr Troy                      ,APR-SEP VOLUME,bound_10_30_50_70_90,350,420,465,510,580,71,86,95,104,118,2,2006,20060410,MT
48.6177192,-116.0474072,12305000,cu01,47,7040,KOOTENAI at Leonia (12)                ,APR-JUL VOLUME,bound_05_30_50_70_95,5800,6650,7040,7430,8280,82,94,100,106,118,2,2006,20060410,ID
48.6177192,-116.0474072,12305000,cu01,49,8120,KOOTENAI at Leonia (12)                ,APR-SEP VOLUME,bound_05_30_50_70_95,7920,8060,8120,8180,8320,98,99,100,101,102,2,2006,20060410,ID
48.9993981,-116.1796447,12306500,cu01,47,405,MOYIE RIVER at Eastport                 ,APR-JUL VOLUME,bound_10_30_50_70_90,335,370,390,410,445,83,91,96,101,110,2,2006,20060410,ID
48.9993981,-116.1796447,12306500,cu01,49,420,MOYIE RIVER at Eastport                 ,APR-SEP VOLUME,bound_10_30_50_70_90,350,380,405,430,460,83,90,96,102,110,2,2006,20060410,ID
48.9610592,-116.5552139,12321000,cu01,47,123,SMITH CREEK                             ,APR-JUL VOLUME,bound_10_30_50_70_90,111,126,137,148,163,90,102,111,120,133,2,2006,20060410,ID
48.9610592,-116.5552139,12321000,cu01,49,129,SMITH CREEK                             ,APR-SEP VOLUME,bound_10_30_50_70_90,116,133,145,157,174,90,103,112,122,135,2,2006,20060410,ID
48.9971719,-116.5691039,12321500,cu01,47,123,BOUNDARY CREEK                          ,APR-JUL VOLUME,bound_10_30_50_70_90,104,119,129,139,154,85,97,105,113,125,2,2006,20060410,ID
48.9971719,-116.5691039,12321500,cu01,49,129,BOUNDARY CREEK                          ,APR-SEP VOLUME,bound_10_30_50_70_90,110,125,135,145,160,85,97,105,112,124,2,2006,20060410,ID
49.1777778,-117.7163889,12323000,cu01,47,34900,COLUMBIA at Birchbank (12)             ,APR-JUL VOLUME,bound_05_30_50_70_95,27417,31394,33200,35010,38980,79,90,95,100,112,2,2006,20060410,XX
49.1777778,-117.7163889,12323000,cu01,49,43500,COLUMBIA at Birchbank (12)             ,APR-SEP VOLUME,bound_05_30_50_70_95,34156,39137,41400,43660,48640,79,90,95,100,112,2,2006,20060410,XX
46.5196511,-112.7933758,12324590,cu01,47,76,LITTLE BLACKFOOT nr Garrison            ,APR-JUL VOLUME,bound_10_30_50_70_90,46,72,90,108,134,61,95,118,142,176,2,2006,20060410,MT
46.5196511,-112.7933758,12324590,cu01,49,84,LITTLE BLACKFOOT nr Garrison            ,APR-SEP VOLUME,bound_10_30_50_70_90,53,80,99,118,145,63,95,118,140,173,2,2006,20060410,MT
46.2329806,-113.2997833,12325500,cu01,47,13.7,FLINT CREEK nr Southern Cross           ,APR-JUL VOLUME,bound_10_30_50_70_90,7.7,11.9,14.8,17.7,22,56,87,108,129,161,2,2006,20060410,MT
46.2329806,-113.2997833,12325500,cu01,49,16.2,FLINT CREEK nr Southern Cross           ,APR-SEP VOLUME,bound_10_30_50_70_90,8.7,14,17.5,21,26,54,86,108,130,160,2,2006,20060410,MT
46.4890936,-113.2370097,12330100,cu01,47,56,FLINT CREEK blw Boulder Ck              ,APR-JUL VOLUME,bound_10_30_50_70_90,30,45,56,67,82,54,80,100,120,146,2,2006,20060410,MT
46.4890936,-113.2370097,12330100,cu01,49,71,FLINT CREEK blw Boulder Ck              ,APR-SEP VOLUME,bound_10_30_50_70_90,41,59,72,85,103,58,83,101,120,145,2,2006,20060410,MT
46.5591,-113.3131,12330900,cu01,45,8.2,LOWER WILLOW CK RES Inflow              ,APR-MAY VOLUME,bound_10_30_50_70_90,4.6,6.7,8.1,9.5,11.6,56,82,99,116,141,2,2006,20060410,MT
46.5591,-113.3131,12330900,cu01,47,12.5,LOWER WILLOW CK RES Inflow              ,APR-JUL VOLUME,bound_10_30_50_70_90,5.6,9.4,11.9,14.4,18.3,45,75,95,115,146,2,2006,20060410,MT
46.1949233,-113.5009044,12332000,cu01,47,64,MF ROCK CREEK nr Philipsburg            ,APR-JUL VOLUME,bound_10_30_50_70_90,52,64,72,80,92,81,100,112,125,144,2,2006,20060410,MT
46.1949233,-113.5009044,12332000,cu01,49,72,MF ROCK CREEK nr Philipsburg            ,APR-SEP VOLUME,bound_10_30_50_70_90,58,71,80,89,102,81,99,111,124,142,2,2006,20060410,MT
46.7224269,-113.68315,12334510,cu01,47,270,ROCK CREEK nr Clinton                   ,APR-JUL VOLUME,bound_10_30_50_70_90,210,275,315,355,420,78,102,117,131,156,2,2006,20060410,MT
46.7224269,-113.68315,12334510,cu01,49,305,ROCK CREEK nr Clinton                   ,APR-SEP VOLUME,bound_10_30_50_70_90,245,310,355,400,465,80,102,116,131,152,2,2006,20060410,MT
46.7782694,-112.7675439,12335500,cu01,45,10.3,NEVADA CREEK nr Helmville               ,APR-MAY VOLUME,bound_10_30_50_70_90,5.3,7.9,9.6,11.3,13.9,51,77,93,110,135,2,2006,20060410,MT
46.7782694,-112.7675439,12335500,cu01,47,17.3,NEVADA CREEK nr Helmville               ,APR-JUL VOLUME,bound_10_30_50_70_90,8.5,13,16,18.8,24,49,75,92,109,139,2,2006,20060410,MT
46.89965,-113.7564872,12340000,cu01,47,805,BLACKFOOT RIVER nr Bonner               ,APR-JUL VOLUME,bound_10_30_50_70_90,545,700,810,915,1075,68,87,101,114,134,2,2006,20060410,MT
46.89965,-113.7564872,12340000,cu01,49,890,BLACKFOOT RIVER nr Bonner               ,APR-SEP VOLUME,bound_10_30_50_70_90,615,780,895,1005,1175,69,88,101,113,132,2,2006,20060410,MT
46.8683,-113.8882,12340400,cu01,47,605,CLARK FORK abv Milltown                 ,APR-JUL VOLUME,bound_10_30_50_70_90,385,550,665,780,945,64,91,110,129,156,2,2006,20060410,MT
46.8683,-113.8882,12340400,cu01,49,705,CLARK FORK abv Milltown                 ,APR-SEP VOLUME,bound_10_30_50_70_90,460,650,775,900,1085,65,92,110,128,154,2,2006,20060410,MT
46.8771469,-113.9323286,12340500,cu01,47,1410,CLARK FORK abv Missoula                 ,APR-JUL VOLUME,bound_10_30_50_70_90,1100,1330,1480,1630,1860,78,94,105,116,132,2,2006,20060410,MT
46.8771469,-113.9323286,12340500,cu01,49,1600,CLARK FORK abv Missoula                 ,APR-SEP VOLUME,bound_10_30_50_70_90,1260,1510,1680,1850,2100,79,94,105,116,131,2,2006,20060410,MT
45.7249181,-114.281475,12342500,cu01,47,143,WF BITTERROOT nr Conner (2)             ,APR-JUL VOLUME,bound_10_30_50_70_90,118,148,168,188,220,83,103,117,131,154,2,2006,20060410,MT
45.7249181,-114.281475,12342500,cu01,49,157,WF BITTERROOT nr Conner (2)             ,APR-SEP VOLUME,bound_10_30_50_70_90,128,161,183,204,239,82,103,117,130,152,2,2006,20060410,MT
45.9721425,-114.1414742,12344000,cu01,47,460,BITTERROOT nr Darby                     ,APR-JUL VOLUME,bound_10_30_50_70_90,385,470,525,580,665,84,102,114,126,145,2,2006,20060410,MT
45.9721425,-114.1414742,12344000,cu01,49,515,BITTERROOT nr Darby                     ,APR-SEP VOLUME,bound_10_30_50_70_90,445,530,590,650,735,86,103,115,126,143,2,2006,20060410,MT
46.0611,-114.2333,12345000,cu01,47,78,COMO RESERVOIR Inflow                   ,APR-JUL VOLUME,bound_10_30_50_70_90,72,80,86,92,100,92,103,110,118,128,2,2006,20060410,MT
46.0611,-114.2333,12345000,cu01,49,82,COMO RESERVOIR Inflow                   ,APR-SEP VOLUME,bound_10_30_50_70_90,77,85,91,97,105,94,104,111,118,128,2,2006,20060410,MT
46.8379789,-114.1059453,12352800,cu01,47,1250,BITTERROOT at Missoula                  ,APR-JUL VOLUME,bound_10_30_50_70_90,1200,1350,1460,1570,1720,96,108,117,126,138,2,2006,20060410,MT
46.8379789,-114.1059453,12352800,cu01,49,1370,BITTERROOT at Missoula                  ,APR-SEP VOLUME,bound_10_30_50_70_90,1330,1490,1600,1710,1870,97,109,117,125,136,2,2006,20060410,MT
46.8690897,-114.1267794,12353000,cu01,47,2660,CLARK FORK blw Missoula                 ,APR-JUL VOLUME,bound_10_30_50_70_90,2340,2690,2930,3170,3520,88,101,110,119,132,2,2006,20060410,MT
46.8690897,-114.1267794,12353000,cu01,49,2960,CLARK FORK blw Missoula                 ,APR-SEP VOLUME,bound_10_30_50_70_90,2620,3000,3260,3520,3900,89,101,110,119,132,2,2006,20060410,MT
47.3018744,-115.0873606,12354500,cu01,47,3520,CLARK FORK at St. Regis (1)             ,APR-JUL VOLUME,bound_05_30_50_70_95,2390,3410,3870,4330,5350,68,97,110,123,152,2,2006,20060410,MT
47.3018744,-115.0873606,12354500,cu01,49,3910,CLARK FORK at St. Regis (1)             ,APR-SEP VOLUME,bound_05_30_50_70_95,2650,3780,4300,4820,5950,68,97,110,123,152,2,2006,20060410,MT
48.4955219,-114.1276244,12355500,cu01,47,1620,NF FLATHEAD nr Columbia Falls           ,APR-JUL VOLUME,bound_10_30_50_70_90,1440,1600,1710,1820,1980,89,99,106,112,122,2,2006,20060410,MT
48.4955219,-114.1276244,12355500,cu01,49,1800,NF FLATHEAD nr Columbia Falls           ,APR-SEP VOLUME,bound_10_30_50_70_90,1610,1780,1900,2020,2190,89,99,106,112,122,2,2006,20060410,MT
48.4952442,-114.0101189,12358500,cu01,47,1590,MF FLATHEAD nr West Glacier             ,APR-JUL VOLUME,bound_10_30_50_70_90,1360,1520,1620,1720,1880,86,96,102,108,118,2,2006,20060410,MT
48.4952442,-114.0101189,12358500,cu01,49,1740,MF FLATHEAD nr West Glacier             ,APR-SEP VOLUME,bound_10_30_50_70_90,1500,1660,1770,1880,2040,86,95,102,108,117,2,2006,20060410,MT
48.3566308,-114.037618,12362500,cu01,47,2000,HUNGRY HORSE Reservoir Inflow (12)     ,APR-JUL VOLUME,bound_05_30_50_70_95,1550,1900,2060,2220,2570,78,95,103,111,128,2,2006,20060410,MT
48.3566308,-114.037618,12362500,cu01,49,2120,HUNGRY HORSE Reservoir Inflow (12)     ,APR-SEP VOLUME,bound_05_30_50_70_95,1590,2000,2190,2380,2790,75,94,103,112,132,2,2006,20060410,MT
48.3619086,-114.1848483,12363000,cu01,47,5350,FLATHEAD at Columbia Falls (2)          ,APR-JUL VOLUME,bound_10_30_50_70_90,4560,5130,5520,5910,6480,85,96,103,110,121,2,2006,20060410,MT
48.3619086,-114.1848483,12363000,cu01,49,5820,FLATHEAD at Columbia Falls (2)          ,APR-SEP VOLUME,bound_10_30_50_70_90,4970,5590,6010,6430,7050,85,96,103,110,121,2,2006,20060410,MT
48.3188519,-114.3873575,12365000,cu01,47,192,STILLWATER nr Whitefish                 ,APR-JUL VOLUME,bound_10_30_50_70_90,157,198,225,252,292,82,103,117,131,152,2,2006,20060410,MT
48.3188519,-114.3873575,12365000,cu01,49,210,STILLWATER nr Whitefish                 ,APR-SEP VOLUME,bound_10_30_50_70_90,172,216,245,275,320,82,103,117,131,152,2,2006,20060410,MT
48.3202411,-114.2784639,12366000,cu01,47,101,WHITEFISH nr Kalispell                  ,APR-JUL VOLUME,bound_10_30_50_70_90,90,105,115,125,140,89,104,114,124,139,2,2006,20060410,MT
48.3202411,-114.2784639,12366000,cu01,49,114,WHITEFISH nr Kalispell                  ,APR-SEP VOLUME,bound_10_30_50_70_90,100,117,129,141,158,88,103,113,124,139,2,2006,20060410,MT
48.1803,-114.6175,12367100,cu01,47,7.2,ASHLEY CREEK nr Marion (2)              ,APR-JUL VOLUME,bound_10_30_50_70_90,4.5,6.2,7.3,8.4,10.1,62,86,101,117,140,2,2006,20060410,MT
48.1803,-114.6175,12367100,cu01,33,1.06,ASHLEY CREEK nr Marion (2)              ,MARCH-VOLUME,bound_50,-99.9,-99.9,1.03,-99.9,-99.9,-99,-99,97,-99,-99,2,2006,20060410,MT
48.0243961,-113.9798289,12370000,cu01,47,565,SWAN RIVER nr Bigfork                   ,APR-JUL VOLUME,bound_10_30_50_70_90,475,555,605,655,735,84,98,107,116,130,2,2006,20060410,MT
48.0243961,-113.9798289,12370000,cu01,49,645,SWAN RIVER nr Bigfork                   ,APR-SEP VOLUME,bound_10_30_50_70_90,540,630,690,750,840,84,98,107,116,130,2,2006,20060410,MT
47.6802158,-114.246788,12372000,cu01,47,6180,Flathead Lake inflow (12)              ,APR-JUL VOLUME,bound_05_30_50_70_95,5050,6040,6490,6940,7930,82,98,105,112,128,2,2006,20060410,MT
47.6802158,-114.246788,12372000,cu01,49,6700,Flathead Lake inflow (12)              ,APR-SEP VOLUME,bound_05_30_50_70_95,5470,6540,7030,7520,8590,82,98,105,112,128,2,2006,20060410,MT
47.4296569,-114.8559664,12389000,cu01,47,10100,CLARK FORK nr Plains (12)              ,APR-JUL VOLUME,bound_05_30_50_70_95,7700,9760,10700,11640,13700,76,97,106,115,136,2,2006,20060410,MT
47.4296569,-114.8559664,12389000,cu01,49,11100,CLARK FORK nr Plains (12)              ,APR-SEP VOLUME,bound_05_30_50_70_95,8500,10770,11800,12830,15100,77,97,106,116,136,2,2006,20060410,MT
47.5918806,-115.229593,12389500,cu01,47,205,THOMPSON nr Thompson Falls              ,APR-JUL VOLUME,bound_10_30_50_70_90,118,166,198,230,276,58,81,97,112,135,2,2006,20060410,MT
47.5918806,-115.229593,12389500,cu01,49,230,THOMPSON nr Thompson Falls              ,APR-SEP VOLUME,bound_10_30_50_70_90,141,191,225,260,310,61,83,98,113,135,2,2006,20060410,MT
47.5860461,-115.355153,12390700,cu01,47,116,PROSPECT CREEK at Thompson Falls        ,APR-JUL VOLUME,bound_10_30_50_70_90,69,90,104,118,139,59,78,90,102,120,2,2006,20060410,MT
47.5860461,-115.355153,12390700,cu01,49,124,PROSPECT CREEK at Thompson Falls        ,APR-SEP VOLUME,bound_10_30_50_70_90,76,98,113,128,150,61,79,91,103,121,2,2006,20060410,MT
48.0915928,-116.117675,12392000,cu01,47,11300,CLARK FK at Whitehorse Rpds (12)       ,APR-JUL VOLUME,bound_05_30_50_70_95,8460,10830,11900,12970,15340,75,96,105,115,136,2,2006,20060410,ID
48.0915928,-116.117675,12392000,cu01,49,12500,CLARK FK at Whitehorse Rpds (12)       ,APR-SEP VOLUME,bound_05_30_50_70_95,9320,11920,13100,14280,16880,75,95,105,114,135,2,2006,20060410,ID
48.20852,-116.914643,12395000,cu01,47,815,PRIEST near Priest River (12)          ,APR-JUL VOLUME,bound_05_30_50_70_95,710,820,870,920,1030,87,101,107,113,126,2,2006,20060410,ID
48.20852,-116.914643,12395000,cu01,49,870,PRIEST near Priest River (12)          ,APR-SEP VOLUME,bound_05_30_50_70_95,640,840,930,1020,1225,74,97,107,117,141,2,2006,20060410,ID
48.1832392,-117.0343689,12395500,cu01,47,12700,PEND OREILLE Lake Inflow (2)            ,APR-JUL VOLUME,bound_10_30_50_70_90,10550,12310,13500,14690,16450,83,97,106,116,130,2,2006,20060410,ID
48.1832392,-117.0343689,12395500,cu01,49,13900,PEND OREILLE Lake Inflow (2)            ,APR-SEP VOLUME,bound_10_30_50_70_90,11570,13490,14800,16110,18030,83,97,106,116,130,2,2006,20060410,ID
48.7810272,-117.4163558,12396500,cu01,47,12900,PEND OREILLE bl Box Canyon (2)          ,APR-JUL VOLUME,bound_10_30_50_70_90,11020,12610,13700,14790,16380,85,98,106,115,127,2,2006,20060410,WA
48.7810272,-117.4163558,12396500,cu01,49,14100,PEND OREILLE bl Box Canyon (2)          ,APR-SEP VOLUME,bound_10_30_50_70_90,11770,13690,15000,16310,18230,83,97,106,116,129,2,2006,20060410,WA
48.9843486,-118.2163989,12404500,cu01,47,1870,KETTLE near Laurier                     ,APR-JUL VOLUME,bound_10_30_50_70_90,1610,1810,1940,2070,2270,86,97,104,111,121,2,2006,20060410,WA
48.9843486,-118.2163989,12404500,cu01,49,1970,KETTLE near Laurier                     ,APR-SEP VOLUME,bound_10_30_50_70_90,1680,1890,2040,2190,2400,85,96,104,111,122,2,2006,20060410,WA
48.5943461,-118.0624886,12409000,cu01,47,128,COLVILLE at Kettle Falls                ,APR-JUL VOLUME,bound_10_30_50_70_90,130,153,169,185,208,102,120,132,145,162,2,2006,20060410,WA
48.5943461,-118.0624886,12409000,cu01,49,141,COLVILLE at Kettle Falls                ,APR-SEP VOLUME,bound_10_30_50_70_90,144,168,185,202,226,102,119,131,143,160,2,2006,20060410,WA
47.56888889,-116.2533333,12413000,cu01,47,740,NF COEUR D'ALENE RIVER AT ENAVILLE      ,APR-JUL VOLUME,bound_10_30_50_70_90,510,625,700,775,890,69,84,95,105,120,2,2006,20060410,ID
47.56888889,-116.2533333,12413000,cu01,49,780,NF COEUR D'ALENE RIVER AT ENAVILLE      ,APR-SEP VOLUME,bound_10_30_50_70_90,545,660,740,820,935,70,85,95,105,120,2,2006,20060410,ID
47.2749178,-116.1884936,12414500,cu01,47,1140,ST. JOE at Calder                       ,APR-JUL VOLUME,bound_10_30_50_70_90,875,1010,1100,1190,1320,77,89,96,104,116,2,2006,20060410,ID
47.2749178,-116.1884936,12414500,cu01,49,1200,ST. JOE at Calder                       ,APR-SEP VOLUME,bound_10_30_50_70_90,930,1070,1160,1250,1390,78,89,97,104,116,2,2006,20060410,ID
47.7029575,-116.9779747,12419000,cu01,47,2550,SPOKANE near Post Falls (2)             ,APR-JUL VOLUME,bound_10_30_50_70_90,1880,2220,2460,2700,3040,74,87,96,106,119,2,2006,20060410,ID
47.7029575,-116.9779747,12419000,cu01,49,2650,SPOKANE near Post Falls (2)             ,APR-SEP VOLUME,bound_10_30_50_70_90,1950,2310,2550,2790,3150,74,87,96,105,119,2,2006,20060410,ID
47.8365533,-117.8413478,12433000,cu01,47,2850,SPOKANE at Long Lake (2)                ,APR-JUL VOLUME,bound_10_30_50_70_90,2080,2480,2750,3020,3420,73,87,96,106,120,2,2006,20060410,WA
47.8365533,-117.8413478,12433000,cu01,49,3070,SPOKANE at Long Lake (2)                ,APR-SEP VOLUME,bound_10_30_50_70_90,2260,2680,2960,3240,3660,74,87,96,106,119,2,2006,20060410,WA
47.8615533,-117.8588497,12433200,cu01,58,10.2,CHAMOKANE CREEK near Long Lake          ,MAY-AUG VOLUME,bound_10_30_50_70_90,9.3,12,13.9,15.8,18.5,91,118,136,155,181,2,2006,20060410,WA
47.9654303,-118.9827992,12436500,cu01,47,53800,COLUMBIA at Grand Coulee Dm (12)       ,APR-JUL VOLUME,bound_05_30_50_70_95,41646,48835,52100,55360,62550,77,91,97,103,116,2,2006,20060410,WA
47.9654303,-118.9827992,12436500,cu01,49,64000,COLUMBIA at Grand Coulee Dm (12)       ,APR-SEP VOLUME,bound_05_30_50_70_95,49734,58307,62200,66090,74670,78,91,97,103,117,2,2006,20060410,WA
43.0188292,-110.1182206,09188500,gr01,47,265,Green River at Warren Bridge            ,APR-JUL VOLUME,bound_10_30_50_70_90,222,256,280,305,345,84,97,106,115,130,2,2006,20060410,WY
43.0305017,-109.7701525,09196500,gr01,47,104,Pine Creek abv Fremont Lake             ,APR-JUL VOLUME,bound_10_30_50_70_90,93,103,110,117,129,89,99,106,112,124,2,2006,20060410,WY
42.5671661,-109.9301511,09205000,gr01,47,395,New Fork River nr Big Piney             ,APR-JUL VOLUME,bound_10_30_50_70_90,307,375,425,478,562,78,95,108,121,142,2,2006,20060410,WY
42.0332814,-110.0673764,09211150,gr01,47,860,Fontenelle Reservoir Inflow             ,APR-JUL VOLUME,bound_10_30_50_70_90,629,812,950,1099,1337,73,94,110,128,155,2,2006,20060410,WY
42.316895,-109.4856867,09213500,gr01,47,58,Big Sandy River nr Farson               ,APR-JUL VOLUME,bound_10_30_50_70_90,45,55,63,71,85,78,95,109,122,147,2,2006,20060410,WY
41.5163536,-109.4490233,09217000,gr01,47,875,Green River nr Green River WY (2)      ,APR-JUL VOLUME,bound_10_30_50_70_90,674,841,965,1097,1308,77,96,110,125,149,2,2006,20060410,WY
40.9591131,-110.5801656,09217900,gr01,47,95,Blacks Fork nr Robertson                ,APR-JUL VOLUME,bound_10_30_50_70_90,73,91,104,118,140,77,96,109,124,147,2,2006,20060410,WY
41.0541144,-110.3984925,09220000,gr01,47,29,EF of Smiths Fork nr Robertson          ,APR-JUL VOLUME,bound_10_30_50_70_90,21,27,32,37,45,72,93,110,128,155,2,2006,20060410,WY
42.1104939,-110.7096211,09223000,gr01,47,65,Hams Fk blw Pole Ck nr Frontier         ,APR-JUL VOLUME,bound_10_30_50_70_90,56,73,85,98,120,86,112,131,151,185,2,2006,20060410,WY
42.0098,-110.6705,09223100,gr01,47,89,Hams Fork Inf to Viva Naughton Res      ,APR-JUL VOLUME,bound_10_30_50_70_90,75,99,116,135,165,84,111,130,152,185,2,2006,20060410,WY
40.9063486,-109.421525,09234400,gr01,47,1190,Flaming Gorge Reservoir Inflow (2)      ,APR-JUL VOLUME,bound_10_30_50_70_90,848,1122,1330,1556,1921,71,94,112,131,161,2,2006,20060410,UT
40.4835881,-106.8322714,09239500,gr01,47,280,Yampa River at Steamboat Springs (2)    ,APR-JUL VOLUME,bound_10_30_50_70_90,290,339,375,412,471,104,121,134,147,168,2,2006,20060410,CO
40.2691481,-106.8808808,09237450,gr01,47,29,Yampa R ab Stagecoach Reservoir (2)     ,APR-JUL VOLUME,bound_10_30_50_70_90,29,38,45,53,66,100,131,155,183,228,2,2006,20060410,CO
40.5146975,-106.9539406,09242500,gr01,47,325,Elk River nr Milner                     ,APR-JUL VOLUME,bound_10_30_50_70_90,324,385,430,477,551,100,118,132,147,170,2,2006,20060410,CO
40.6696939,-107.2850592,09245000,gr01,47,39,Elkhead Creek nr Elkhead                ,APR-JUL VOLUME,bound_10_30_50_70_90,32,41,48,55,67,82,105,123,141,172,2,2006,20060410,CO
40.5419164,-107.3978394,09246400,gr01,47,59,Elkhead Creek blw Maynard Gulch (2)     ,APR-JUL VOLUME,bound_10_30_50_70_90,48,65,77,89,106,81,110,131,151,180,2,2006,20060410,CO
40.7438578,-107.5408994,09246920,gr01,36,7.5,Fortification Ck nr Fortification       ,MAR-JUN VOLUME,bound_10_30_50_70_90,4.48,7.17,9.5,12.29,17.31,60,96,127,164,231,2,2006,20060410,CO
40.5027467,-108.0298039,09251000,gr01,47,990,Yampa River Near Maybell (2)            ,APR-JUL VOLUME,bound_10_30_50_70_90,1031,1216,1350,1491,1712,104,123,136,151,173,2,2006,20060410,CO
40.9994106,-107.143388,09253000,gr01,47,159,Little Snake River nr Slater            ,APR-JUL VOLUME,bound_10_30_50_70_90,157,188,210,234,271,99,118,132,147,170,2,2006,20060410,CO
41.0282981,-107.5492328,09257000,gr01,47,340,Little Snake River nr Dixon             ,APR-JUL VOLUME,bound_10_30_50_70_90,301,375,430,489,582,89,110,126,144,171,2,2006,20060410,WY
40.5471892,-108.4242647,09260000,gr01,47,370,Little Snake River nr Lily              ,APR-JUL VOLUME,bound_10_30_50_70_90,315,404,470,541,655,85,109,127,146,177,2,2006,20060410,CO
40.5888483,-109.4654139,09261700,gr01,47,21,Big Brush Ck abv Red Fleet Resv         ,APR-JUL VOLUME,bound_10_30_50_70_90,9.87,14.3,17.7,22,28,47,68,84,105,133,2,2006,20060410,UT
40.5774581,-109.6220858,09266500,gr01,47,52,Ashley Creek nr Vernal                  ,APR-JUL VOLUME,bound_10_30_50_70_90,22,31,39,47,61,42,60,75,90,117,2,2006,20060410,UT
40.4502233,-110.8843306,09275500,gr01,47,24,WF Duchesne River nr Hanna (2)          ,APR-JUL VOLUME,bound_10_30_50_70_90,19.3,24,28,32,38,80,100,117,133,158,2,2006,20060410,UT
40.3002303,-110.6023811,09277500,gr01,47,105,Duchesne R nr Tabiona (2)               ,APR-JUL VOLUME,bound_10_30_50_70_90,78,99,115,132,159,74,94,110,126,151,2,2006,20060410,UT
40.5574453,-110.6979414,09277800,gr01,47,82,Upper Stillwater Resv Inflow            ,APR-JUL VOLUME,bound_10_30_50_70_90,70,84,94,105,121,85,102,115,128,148,2,2006,20060410,UT
40.49328,-110.5782169,09279000,gr01,47,89,Rock Ck nr Mountain Home (2)            ,APR-JUL VOLUME,bound_10_30_50_70_90,77,93,105,117,137,87,104,118,131,154,2,2006,20060410,UT
40.2705106,-110.4426567,09279150,gr01,47,188,Duchesne R abv Knight Diversion (2)     ,APR-JUL VOLUME,bound_10_30_50_70_90,152,188,215,243,288,81,100,114,129,153,2,2006,20060410,UT
40.1332881,-111.0248869,09285000,gr01,47,59,Strawberry R nr Soldier Springs (2)     ,APR-JUL VOLUME,bound_10_30_50_70_90,40,57,70,84,108,68,97,119,142,183,2,2006,20060410,UT
40.3307839,-111.0496108,09286700,gr01,47,25,Currant Creek Reservoir Inflow (2)      ,APR-JUL VOLUME,bound_10_30_50_70_90,12.8,22,29,37,52,51,88,116,148,208,2,2006,20060410,UT
40.1546794,-110.5548786,09288180,gr01,47,121,Strawberry R nr Duchesne (2)            ,APR-JUL VOLUME,bound_10_30_50_70_90,77,109,135,163,210,64,90,112,135,174,2,2006,20060410,UT
40.6066125,-110.5271067,09289500,gr01,47,68,Lake Fork River Moon Lake Inflow        ,APR-JUL VOLUME,bound_10_30_50_70_90,53,65,73,82,96,78,96,107,121,141,2,2006,20060410,UT
40.5118931,-110.3415492,09292500,gr01,47,62,Yellowstone River nr Altonah            ,APR-JUL VOLUME,bound_10_30_50_70_90,43,55,64,74,89,69,89,103,119,144,2,2006,20060410,UT
40.2002375,-110.0637614,09295000,gr01,47,260,Duchesne R at Myton (2)                 ,APR-JUL VOLUME,bound_10_30_50_70_90,157,244,315,394,528,60,94,121,152,203,2,2006,20060410,UT
40.5935653,-109.9323739,09299500,gr01,47,56,Whiterocks near Whiterocks              ,APR-JUL VOLUME,bound_10_30_50_70_90,29,40,49,59,74,52,71,88,105,132,2,2006,20060410,UT
40.2155172,-109.7834764,09302000,gr01,47,324,Duchesne R nr Randlett (2)              ,APR-JUL VOLUME,bound_10_30_50_70_90,181,286,370,465,626,56,88,114,144,193,2,2006,20060410,UT
40.033585,-107.8622947,09304500,gr01,47,290,White River nr Meeker                   ,APR-JUL VOLUME,bound_10_30_50_70_90,254,309,350,393,461,88,107,121,136,159,2,2006,20060410,CO
39.715795,-111.3001789,09310000,gr01,47,11.9,Gooseberry Creek nr Scofield            ,APR-JUL VOLUME,bound_10_30_50_70_90,8.61,11.3,13.3,15.5,19,72,95,112,130,160,2,2006,20060410,UT
39.7874611,-111.1257256,09311000,gr01,47,45,Price River near Scofield Reservoir     ,APR-JUL VOLUME,bound_10_30_50_70_90,24,37,46,55,68,53,82,102,122,151,2,2006,20060410,UT
39.8757928,-111.0373878,09312600,gr01,47,17.3,White River blw Tabbyune Creek          ,APR-JUL VOLUME,bound_10_30_50_70_90,10.1,14.8,18.5,23,29,58,86,107,133,168,2,2006,20060410,UT
38.9860831,-110.1512475,09315000,gr01,47,3170,Green River at Green River UT (2)      ,APR-JUL VOLUME,bound_10_30_50_70_90,2420,3240,3800,4360,5180,76,102,120,138,163,2,2006,20060410,UT
39.5992,-111.2086,09317801,gr01,47,15.7,Huntington Ck Inflow to Electric Lk     ,APR-JUL VOLUME,bound_10_30_50_70_90,8.89,12.9,16,19.5,25,57,82,102,124,159,2,2006,20060410,UT
39.3852447,-111.088225,09317997,gr01,47,50,Huntington Ck nr Huntington             ,APR-JUL VOLUME,bound_10_30_50_70_90,27,40,49,58,71,54,80,98,116,142,2,2006,20060410,UT
39.2888533,-111.270173,09323900,gr01,47,58,Joe's Valley Resv Inflow                ,APR-JUL VOLUME,bound_10_30_50_70_90,41,54,64,75,91,71,93,110,129,157,2,2006,20060410,UT
39.1041372,-111.2165589,09326500,gr01,47,39,Ferron Ck (Upper Station) nr Ferron     ,APR-JUL VOLUME,bound_10_30_50_70_90,30,38,44,51,61,77,97,113,131,156,2,2006,20060410,UT
38.6277522,-111.6479647,09329050,gr01,47,7,Seven Mile Ck nr Fish Lake              ,APR-JUL VOLUME,bound_10_30_50_70_90,3.33,4.66,5.7,6.84,8.71,48,67,81,98,124,2,2006,20060410,UT
38.9819189,-111.2493364,09330500,gr01,47,19.9,Muddy Creek nr Emery                    ,APR-JUL VOLUME,bound_10_30_50_70_90,12.4,16.7,20,24,29,62,84,101,121,146,2,2006,20060410,UT
34.3144864,-109.362315,09384000,lc01,26,7.1,Little Colorado River abv Lyman Lake    ,FEB-JUN VOLUME,bound_10_30_50_70_90,0.08,0.52,1.2,2.3,4.91,1,7,17,32,69,2,2006,20060410,AZ
35.2825289,-108.5534108,09386900,lc01,25,3,Rio Nutria nr Ramah                     ,FEB-MAY VOLUME,bound_10_30_50_70_90,0,0.06,0.15,0.75,1.5,0,2,5,25,50,2,2006,20060410,NM
35.145,-108.4889,09386921,lc01,25,1.66,Ramah Reservoir inflow                  ,FEB-MAY VOLUME,bound_10_30_50_70_90,0,0.05,0.13,0.66,1.16,0,3,8,40,70,2,2006,20060410,NM
35.2919761,-108.1117311,08341500,lc01,25,7.7,Bluewater Lake inflow                   ,FEB-MAY VOLUME,bound_10_30_50_70_90,0.15,0.38,0.9,2.3,6.2,2,5,12,30,81,2,2006,20060410,NM
35.1008658,-108.7506375,09386950,lc01,25,1.36,Zuni River abv Black Rock Reservoir     ,FEB-MAY VOLUME,bound_10_30_50_70_90,0,0.04,0.09,0.41,0.95,0,3,7,30,70,2,2006,20060410,NM
34.7828075,-110.0442836,09394500,lc01,25,2.8,Little Colorado River at Woodruff       ,FEB-MAY VOLUME,bound_10_30_50_70_90,0.08,0.14,0.22,0.42,1.01,3,5,8,15,36,2,2006,20060410,AZ
34.5553042,-111.1840253,09398300,lc01,25,16.3,Blue Ridge Reservoir inflow             ,FEB-MAY VOLUME,bound_10_30_50_70_90,0,0.49,1,2.5,6,0,3,6,15,37,2,2006,20060410,AZ
35.1350139,-111.6307147,09400910,lc01,25,4.8,Lake Mary inflow                        ,FEB-MAY VOLUME,bound_10_30_50_70_90,0.05,0.19,0.77,1.44,3.4,1,4,16,30,71,2,2006,20060410,AZ
37.2041494,-113.1807789,09406000,lc01,47,64,Virgin River at Virgin                  ,APR-JUL VOLUME,bound_10_30_50_70_90,14.7,20,29,39,60,23,31,45,61,94,2,2006,20060410,UT
37.1722044,-113.3860617,09408150,lc01,47,69,Virgin River near Hurricane             ,APR-JUL VOLUME,bound_10_30_50_70_90,13.8,19.3,25,38,65,20,28,36,55,94,2,2006,20060410,UT
37.3833133,-113.483288,09408400,lc01,47,5.5,Santa Clara River nr Pine Valley        ,APR-JUL VOLUME,bound_10_30_50_70_90,0.51,1.52,2.5,3.73,5.6,9,28,45,68,102,2,2006,20060410,UT
36.8916436,-113.9244097,09415000,lc01,47,74,Virgin River at Littlefield             ,APR-JUL VOLUME,bound_10_30_50_70_90,14.1,18.5,24,39,75,19,25,32,53,101,2,2006,20060410,AZ
33.0611789,-108.537275,09430500,lc01,25,53,Gila River at Gila                      ,FEB-MAY VOLUME,bound_10_30_50_70_90,10.1,11.7,13,21,33,19,22,25,40,62,2,2006,20060410,NM
32.6481319,-108.8458906,09432000,lc01,25,75,Gila River nr Virden                    ,FEB-MAY VOLUME,bound_10_30_50_70_90,7.5,11.3,16.3,23,45,10,15,22,31,60,2,2006,20060410,NM
33.2467308,-108.88034,09444000,lc01,25,24,San Francisco River at Glenwood         ,FEB-MAY VOLUME,bound_10_30_50_70_90,3.1,3.98,5.7,7.86,11.9,13,17,24,33,50,2,2006,20060410,NM
33.0495078,-109.2959047,09444500,lc01,25,59,San Francisco River at Clifton          ,FEB-MAY VOLUME,bound_10_30_50_70_90,7.1,9.4,13.7,17.7,35,12,16,23,30,59,2,2006,20060410,AZ
32.8683972,-109.5111861,09448500,lc01,25,144,Gila River nr Solomon                   ,FEB-MAY VOLUME,bound_10_30_50_70_90,16,23,34,50,79,11,16,24,35,55,2,2006,20060410,AZ
32.8683972,-109.5111861,09448500,lc01,22,24,Gila River nr Solomon                   ,FEBRUARY-VOLUME,bound_50,-99.9,-99.9,9,-99.9,-99.9,-99,-99,38,-99,-99,2,2006,20060410,AZ
33.1706167,-110.5298219,09469499,lc01,25,84,San Carlos Reservoir inflow             ,FEB-MAY VOLUME,bound_10_30_50_70_90,3.4,6.7,13,34,76,4,8,15,40,90,2,2006,20060410,AZ
33.619495,-110.9215036,09498500,lc01,25,355,Salt River nr Roosevelt                 ,FEB-MAY VOLUME,bound_10_30_50_70_90,36,43,50,89,178,10,12,14,25,50,2,2006,20060410,AZ
33.619495,-110.9215036,09498500,lc01,22,46,Salt River nr Roosevelt                 ,FEBRUARY-VOLUME,bound_10_30_50_70_90,7.4,8.3,9,15.8,31,16,18,20,34,67,2,2006,20060410,AZ
33.9800414,-111.3034658,09499000,lc01,25,50,Tonto Creek ab Gun Creek nr Roosevelt   ,FEB-MAY VOLUME,bound_10_30_50_70_90,1.5,2.5,4,15,40,3,5,8,30,80,2,2006,20060410,AZ
33.9800414,-111.3034658,09499000,lc01,22,12.6,Tonto Creek ab Gun Creek nr Roosevelt   ,FEBRUARY-VOLUME,bound_10_30_50_70_90,0.38,0.5,0.6,3.32,11.3,3,4,5,26,90,2,2006,20060410,AZ
34.0730922,-111.7162569,09508500,lc01,25,200,Verde River abv Horseshoe Dam           ,FEB-MAY VOLUME,bound_10_30_50_70_90,40,48,55,100,186,20,24,28,50,93,2,2006,20060410,AZ
34.0730922,-111.7162569,09508500,lc01,22,35,Verde River abv Horseshoe Dam           ,FEBRUARY-VOLUME,bound_10_30_50_70_90,11.9,14,15,25,47,34,40,43,71,134,2,2006,20060410,AZ
36.2373,-108.8045,CTOMWASH,lc01,35,2.83,Captain Tom Wash nr Two Gray Hills      ,MAR-MAY VOLUME,bound_10_30_50_70_90,0.03,0.28,0.71,2.41,4.91,1,10,25,85,173,2,2006,20060410,NM
36.2378,-109.1281,WHEATFLD,lc01,35,2.9,Wheatfields Creek nr Wheatfields        ,MAR-MAY VOLUME,bound_10_30_50_70_90,0.03,0.29,0.73,2.47,5.07,1,10,25,85,175,2,2006,20060410,AZ
35.977,-108.9304,BOWLLAKE,lc01,35,1,Bowl Canyon Creek abv Assayi Lake       ,MAR-MAY VOLUME,bound_10_30_50_70_90,0.01,0.1,0.25,0.85,1.74,1,10,25,85,174,2,2006,20060410,NM
44.6560233,-112.3713889,06012500,mb01,47,96,LIMA RESERVOIR Inflow (2)               ,APR-JUL VOLUME,bound_10_30_50_70_90,52,70,85,104,140,54,73,89,108,146,2,2006,20060410,MT
44.6560233,-112.3713889,06012500,mb01,49,104,LIMA RESERVOIR Inflow (2)               ,APR-SEP VOLUME,bound_10_30_50_70_90,56,76,93,115,156,54,73,89,111,150,2,2006,20060410,MT
45.0032542,-112.8536364,06015400,mb01,47,131,CLARK CANYON Inflow (2)                 ,APR-JUL VOLUME,bound_10_30_50_70_90,31,54,79,116,203,24,41,60,89,155,2,2006,20060410,MT
45.0032542,-112.8536364,06015400,mb01,49,156,CLARK CANYON Inflow (2)                 ,APR-SEP VOLUME,bound_10_30_50_70_90,49,79,111,155,254,31,51,71,99,163,2,2006,20060410,MT
45.11631,-112.7505792,06016000,mb01,47,168,BEAVERHEAD RIVER at Barretts (2)        ,APR-JUL VOLUME,bound_10_30_50_70_90,38,86,119,152,200,23,51,71,90,119,2,2006,20060410,MT
45.11631,-112.7505792,06016000,mb01,49,200,BEAVERHEAD RIVER at Barretts (2)        ,APR-SEP VOLUME,bound_10_30_50_70_90,46,104,143,182,240,23,52,72,91,120,2,2006,20060410,MT
45.1924222,-112.1424864,06019500,mb01,47,84,RUBY RIVER Reservoir Inflow             ,APR-JUL VOLUME,bound_10_30_50_70_90,68,83,93,103,118,81,99,111,123,140,2,2006,20060410,MT
45.1924222,-112.1424864,06019500,mb01,49,101,RUBY RIVER Reservoir Inflow             ,APR-SEP VOLUME,bound_10_30_50_70_90,80,97,109,121,138,79,96,108,120,137,2,2006,20060410,MT
45.6185342,-113.4578372,06024450,mb01,47,121,BIG HOLE RIVER at Wisdom                ,APR-JUL VOLUME,bound_10_30_50_70_90,36,80,109,138,182,30,66,90,114,150,2,2006,20060410,MT
45.6185342,-113.4578372,06024450,mb01,49,130,BIG HOLE RIVER at Wisdom                ,APR-SEP VOLUME,bound_10_30_50_70_90,42,86,117,148,192,32,66,90,114,148,2,2006,20060410,MT
45.5265933,-112.7016903,06025500,mb01,47,610,BIG HOLE RIVER nr Melrose               ,APR-JUL VOLUME,bound_10_30_50_70_90,395,545,640,740,885,65,89,105,121,145,2,2006,20060410,MT
45.5265933,-112.7016903,06025500,mb01,49,660,BIG HOLE RIVER nr Melrose               ,APR-SEP VOLUME,bound_10_30_50_70_90,430,585,695,800,955,65,89,105,121,145,2,2006,20060410,MT
46.2110389,-112.091665,06033000,mb01,47,78,BOULDER RIVER nr Boulder                ,APR-JUL VOLUME,bound_10_30_50_70_90,45,71,89,107,133,58,91,114,137,171,2,2006,20060410,MT
46.2110389,-112.091665,06033000,mb01,49,85,BOULDER RIVER nr Boulder                ,APR-SEP VOLUME,bound_10_30_50_70_90,48,76,95,114,142,56,89,112,134,167,2,2006,20060410,MT
45.7229839,-111.7410894,06035000,mb01,47,17.9,WILLOW CREEK Reservoir Inflow           ,APR-JUL VOLUME,bound_10_30_50_70_90,5.8,13.1,18,23,30,32,73,101,128,168,2,2006,20060410,MT
45.7229839,-111.7410894,06035000,mb01,49,20,WILLOW CREEK Reservoir Inflow           ,APR-SEP VOLUME,bound_10_30_50_70_90,6.9,15.3,21,27,35,34,76,105,135,175,2,2006,20060410,MT
45.8977058,-111.5966389,06036650,mb01,47,780,JEFFERSON RIVER nr Three Forks (2)      ,APR-JUL VOLUME,bound_10_30_50_70_90,575,780,915,1050,1250,74,100,117,135,160,2,2006,20060410,MT
45.8977058,-111.5966389,06036650,mb01,49,860,JEFFERSON RIVER nr Three Forks (2)      ,APR-SEP VOLUME,bound_10_30_50_70_90,625,845,990,1140,1350,73,98,115,133,157,2,2006,20060410,MT
44.8665928,-111.338288,06038500,mb01,47,390,HEBGEN Reservoir Inflow                 ,APR-JUL VOLUME,bound_10_30_50_70_90,360,405,435,465,510,92,104,112,119,131,2,2006,20060410,MT
44.8665928,-111.338288,06038500,mb01,49,500,HEBGEN Reservoir Inflow                 ,APR-SEP VOLUME,bound_10_30_50_70_90,465,515,550,585,635,93,103,110,117,127,2,2006,20060410,MT
45.4902058,-111.6341383,06041000,mb01,47,680,ENNIS Reservoir Inflow (2)              ,APR-JUL VOLUME,bound_10_30_50_70_90,680,760,810,860,940,100,112,119,126,138,2,2006,20060410,MT
45.4902058,-111.6341383,06041000,mb01,49,850,ENNIS Reservoir Inflow (2)              ,APR-SEP VOLUME,bound_10_30_50_70_90,845,935,1000,1060,1150,99,110,118,125,135,2,2006,20060410,MT
45.4974286,-111.2705108,06043500,mb01,47,440,GALLATIN RIVER nr Gateway               ,APR-JUL VOLUME,bound_10_30_50_70_90,425,480,520,560,615,97,109,118,127,140,2,2006,20060410,MT
45.4974286,-111.2705108,06043500,mb01,49,515,GALLATIN RIVER nr Gateway               ,APR-SEP VOLUME,bound_10_30_50_70_90,495,560,605,650,715,96,109,117,126,139,2,2006,20060410,MT
45.4737,-110.9585,06049450,mb01,47,22,HYALITE RESERVOIR Inflow                ,APR-JUL VOLUME,bound_10_30_50_70_90,18.6,22,24,26,29,85,100,109,118,132,2,2006,20060410,MT
45.4737,-110.9585,06049450,mb01,49,25,HYALITE RESERVOIR Inflow                ,APR-SEP VOLUME,bound_10_30_50_70_90,22,26,28,30,34,88,104,112,120,136,2,2006,20060410,MT
45.8852061,-111.4382983,06052500,mb01,47,495,GALLATIN RIVER at Logan (2)             ,APR-JUL VOLUME,bound_10_30_50_70_90,415,535,615,695,815,84,108,124,140,165,2,2006,20060410,MT
45.8852061,-111.4382983,06052500,mb01,49,570,GALLATIN RIVER at Logan (2)             ,APR-SEP VOLUME,bound_10_30_50_70_90,490,620,710,800,930,86,109,125,140,163,2,2006,20060410,MT
46.1460403,-111.42052,06054500,mb01,49,2390,MISSOURI RIVER at Toston (2)            ,APR-SEP VOLUME,bound_10_30_50_70_90,1850,2310,2630,2950,3410,77,97,110,123,143,2,2006,20060410,MT
46.1460403,-111.42052,06054500,mb01,47,2050,MISSOURI RIVER at Toston (2)            ,APR-JUL VOLUME,bound_10_30_50_70_90,1600,2000,2270,2540,2940,78,98,111,124,143,2,2006,20060410,MT
47.1985567,-112.0963939,06073500,mb01,47,121,DEARBORN nr Craig                       ,APR-JUL VOLUME,bound_10_30_50_70_90,42,73,93,114,144,35,60,77,94,119,2,2006,20060410,MT
47.1985567,-112.0963939,06073500,mb01,49,125,DEARBORN nr Craig                       ,APR-SEP VOLUME,bound_10_30_50_70_90,46,79,101,123,155,37,63,81,98,124,2,2006,20060410,MT
46.7680153,-110.8099361,06077000,mb01,47,17.1,SHEEP CREEK nr White Sulphur Spgs.      ,APR-JUL VOLUME,bound_10_30_50_70_90,12.9,15.8,17.8,19.8,23,75,92,104,116,135,2,2006,20060410,MT
46.7680153,-110.8099361,06077000,mb01,49,20,SHEEP CREEK nr White Sulphur Spgs.      ,APR-SEP VOLUME,bound_10_30_50_70_90,15.5,19,21,23,27,78,95,105,115,135,2,2006,20060410,MT
46.8280047,-111.1921742,06077200,mb01,47,175,SMITH RIVER abv Eagle Creek             ,APR-JUL VOLUME,bound_10_30_50_70_90,42,102,142,182,240,24,58,81,104,137,2,2006,20060410,MT
46.8280047,-111.1921742,06077200,mb01,49,210,SMITH RIVER abv Eagle Creek             ,APR-SEP VOLUME,bound_10_30_50_70_90,48,113,159,205,270,23,54,76,98,129,2,2006,20060410,MT
47.6005,-112.759,06078600,mb01,47,460,GIBSON Reservoir Inflow                 ,APR-JUL VOLUME,bound_10_30_50_70_90,225,305,355,410,485,49,66,77,89,105,2,2006,20060410,MT
47.6005,-112.759,06078600,mb01,49,505,GIBSON Reservoir Inflow                 ,APR-SEP VOLUME,bound_10_30_50_70_90,260,340,395,450,530,51,67,78,89,105,2,2006,20060410,MT
47.8174697,-110.6671586,06090800,mb01,49,3570,MISSOURI RIVER at Fort Benton (2)       ,APR-SEP VOLUME,bound_10_30_50_70_90,2731,3427,3900,4371,5071,76,96,109,122,142,2,2006,20060410,MT
47.8174697,-110.6671586,06090800,mb01,47,2990,MISSOURI RIVER at Fort Benton (2)       ,APR-JUL VOLUME,bound_10_30_50_70_90,2281,2864,3260,3657,4237,76,96,109,122,142,2,2006,20060410,MT
48.4266358,-112.9898006,06091700,mb01,47,205,TWO MEDICINE RIVER nr Browning          ,APR-JUL VOLUME,bound_10_30_50_70_90,104,149,180,211,256,51,73,88,103,125,2,2006,20060410,MT
48.4266358,-112.9898006,06091700,mb01,49,215,TWO MEDICINE RIVER nr Browning          ,APR-SEP VOLUME,bound_10_30_50_70_90,113,159,190,220,265,53,74,88,102,123,2,2006,20060410,MT
48.3699711,-112.8028433,06093200,mb01,47,99,BADGER CREEK nr Browning (2)            ,APR-JUL VOLUME,bound_10_30_50_70_90,48,69,84,99,120,48,70,85,100,121,2,2006,20060410,MT
48.3699711,-112.8028433,06093200,mb01,49,115,BADGER CREEK nr Browning (2)            ,APR-SEP VOLUME,bound_10_30_50_70_90,59,82,98,114,137,51,71,85,99,119,2,2006,20060410,MT
48.1667,-112.8667,06094100,mb01,47,64,SWIFT RESERVOIR Inflow                  ,APR-JUL VOLUME,bound_10_30_50_70_90,27,44,56,68,85,42,69,88,106,133,2,2006,20060410,MT
48.1667,-112.8667,06094100,mb01,49,77,SWIFT RESERVOIR Inflow                  ,APR-SEP VOLUME,bound_10_30_50_70_90,37,55,67,79,97,48,71,87,103,126,2,2006,20060410,MT
48.2436,-112.3852,06095400,mb01,47,14,DUPUYER CREEK nr Valier                 ,APR-JUL VOLUME,bound_10_30_50_70_90,0,5.4,11.9,18.4,28,0,39,85,131,200,2,2006,20060410,MT
48.2436,-112.3852,06095400,mb01,49,15.7,DUPUYER CREEK nr Valier                 ,APR-SEP VOLUME,bound_10_30_50_70_90,0,6.5,13.4,21,31,0,41,85,134,197,2,2006,20060410,MT
48.6333169,-112.3469964,06099000,mb01,47,81,CUT BANK CREEK at Cut Bank              ,APR-JUL VOLUME,bound_10_30_50_70_90,42,59,70,81,98,52,73,86,100,121,2,2006,20060410,MT
48.6333169,-112.3469964,06099000,mb01,49,90,CUT BANK CREEK at Cut Bank              ,APR-SEP VOLUME,bound_10_30_50_70_90,47,65,77,89,107,52,72,86,99,119,2,2006,20060410,MT
48.427205,-111.8897444,06099500,mb01,47,415,MARIAS RIVER nr Shelby (2)              ,APR-JUL VOLUME,bound_10_30_50_70_90,155,265,335,405,515,37,64,81,98,124,2,2006,20060410,MT
48.427205,-111.8897444,06099500,mb01,49,440,MARIAS RIVER nr Shelby (2)              ,APR-SEP VOLUME,bound_10_30_50_70_90,160,270,345,420,530,36,61,78,95,120,2,2006,20060410,MT
47.9302408,-111.5527636,06108000,mb01,47,51,TETON nr Dutton                         ,APR-JUL VOLUME,bound_10_30_50_70_90,7.1,13.8,22,35,71,14,27,43,69,139,2,2006,20060410,MT
47.9302408,-111.5527636,06108000,mb01,49,59,TETON nr Dutton                         ,APR-SEP VOLUME,bound_10_30_50_70_90,8.3,16.5,26,40,78,14,28,44,68,132,2,2006,20060410,MT
48.0049733,-110.2577078,06109500,mb01,49,4060,MISSOURI RIVER at Virgelle (2)          ,APR-SEP VOLUME,bound_10_30_50_70_90,3450,4242,4780,5316,6111,85,104,118,131,151,2,2006,20060410,MT
48.0049733,-110.2577078,06109500,mb01,47,3450,MISSOURI RIVER at Virgelle (2)          ,APR-JUL VOLUME,bound_10_30_50_70_90,2940,3613,4070,4525,5200,85,105,118,131,151,2,2006,20060410,MT
47.6308233,-108.6876522,06115200,mb01,49,4350,MISSOURI RIVER nr Landusky (2)          ,APR-SEP VOLUME,bound_10_30_50_70_90,3325,4174,4750,5326,6171,76,96,109,122,142,2,2006,20060410,MT
47.6308233,-108.6876522,06115200,mb01,47,3690,MISSOURI RIVER nr Landusky (2)          ,APR-JUL VOLUME,bound_10_30_50_70_90,2812,3531,4020,4510,5230,76,96,109,122,142,2,2006,20060410,MT
46.6099517,-110.5757567,06115500,mb01,47,4.6,NF MUSSELSHELL nr Delpine               ,APR-JUL VOLUME,bound_10_30_50_70_90,2.7,4.1,5.1,6.1,7.5,59,89,111,133,163,2,2006,20060410,MT
46.6099517,-110.5757567,06115500,mb01,49,5.4,NF MUSSELSHELL nr Delpine               ,APR-SEP VOLUME,bound_10_30_50_70_90,3.1,4.8,5.9,7,8.7,57,89,109,130,161,2,2006,20060410,MT
46.4532808,-110.3821361,06118500,mb01,47,52,SF MUSSELSHELL abv Martinsdale          ,APR-JUL VOLUME,bound_10_30_50_70_90,31,52,66,80,101,60,100,127,154,194,2,2006,20060410,MT
46.4532808,-110.3821361,06118500,mb01,49,56,SF MUSSELSHELL abv Martinsdale          ,APR-SEP VOLUME,bound_10_30_50_70_90,34,56,71,86,108,61,100,127,154,193,2,2006,20060410,MT
46.4299564,-109.8407389,06120500,mb01,47,77,MUSSELSHELL at Harlowton (2)            ,APR-JUL VOLUME,bound_10_30_50_70_90,66,88,103,118,140,86,114,134,153,182,2,2006,20060410,MT
46.4299564,-109.8407389,06120500,mb01,49,81,MUSSELSHELL at Harlowton (2)            ,APR-SEP VOLUME,bound_10_30_50_70_90,67,90,105,120,143,83,111,130,148,177,2,2006,20060410,MT
46.4280192,-108.5726353,06126500,mb01,47,99,MUSSELSHELL nr Roundup (2)              ,APR-JUL VOLUME,bound_10_30_50_70_90,97,126,145,164,191,98,127,146,166,193,2,2006,20060410,MT
46.4280192,-108.5726353,06126500,mb01,49,102,MUSSELSHELL nr Roundup (2)              ,APR-SEP VOLUME,bound_10_30_50_70_90,96,125,144,163,194,94,123,141,160,190,2,2006,20060410,MT
48.0441847,-106.3564211,06132000,mb01,49,4330,MISSOURI RIVER below Fort Peck (2)      ,APR-SEP VOLUME,bound_10_30_50_70_90,3412,4256,4830,5406,6251,79,98,112,125,144,2,2006,20060410,MT
48.0441847,-106.3564211,06132000,mb01,47,3740,MISSOURI RIVER below Fort Peck (2)      ,APR-JUL VOLUME,bound_10_30_50_70_90,2965,3694,4190,4686,5416,79,99,112,125,145,2,2006,20060410,MT
48.1125236,-103.7182558,06330000,mb01,49,11200,LAKE SAKAKAWEA Inflow (2)               ,APR-SEP VOLUME,bound_10_30_50_70_90,7832,10016,11500,12981,15171,70,89,103,116,135,2,2006,20060410,MT
48.1125236,-103.7182558,06330000,mb01,47,9740,LAKE SAKAKAWEA Inflow (2)               ,APR-JUL VOLUME,bound_10_30_50_70_90,6840,8739,10030,11324,13224,70,90,103,116,136,2,2006,20060410,MT
48.82833333,-113.5211111,05516000,mb01,47,105,LAKE SHERBURNE Inflow                   ,APR-JUL VOLUME,bound_10_30_50_70_90,76,85,91,97,106,72,81,87,92,101,2,2006,20060410,MT
48.82833333,-113.5211111,05516000,mb01,49,122,LAKE SHERBURNE Inflow                   ,APR-SEP VOLUME,bound_10_30_50_70_90,92,100,106,112,120,75,82,87,92,98,2,2006,20060410,MT
48.833315,-113.41982,05017500,mb01,47,385,ST. MARY RIVER nr Babb (2)              ,APR-JUL VOLUME,bound_10_30_50_70_90,265,300,325,350,385,69,78,84,91,100,2,2006,20060410,MT
48.833315,-113.41982,05017500,mb01,49,450,ST. MARY RIVER nr Babb (2)              ,APR-SEP VOLUME,bound_10_30_50_70_90,315,355,380,405,445,70,79,84,90,99,2,2006,20060410,MT
49.0033211,-113.3142608,05020500,mb01,47,435,ST. MARY RIVER at US/CAN Border (2)     ,APR-JUL VOLUME,bound_10_30_50_70_90,305,355,390,425,475,70,82,90,98,109,2,2006,20060410,MT
49.0033211,-113.3142608,05020500,mb01,49,515,ST. MARY RIVER at US/CAN Border (2)     ,APR-SEP VOLUME,bound_10_30_50_70_90,370,425,460,495,550,72,83,89,96,107,2,2006,20060410,MT
49.0074922,-112.5459017,06133000,mb01,37,41,MILK RIVER @ Western Crossing  (3)      ,MAR-JUL VOLUME,bound_10_30_50_70_90,11.1,16,33,46,67,27,39,80,112,163,2,2006,20060410,MT
49.0074922,-112.5459017,06133000,mb01,39,43,MILK RIVER @ Western Crossing  (3)      ,MAR-SEP VOLUME,bound_10_30_50_70_90,11.2,16.8,36,50,72,26,39,84,116,167,2,2006,20060410,MT
49.1436192,-112.0797494,06134500,mb01,37,60.6,MILK RIVER @ Milk River AB  (23)      ,MAR-JUL VOLUME,bound_10_30_50_70_90,15.8,23,55,66,96,26,38,91,109,158,2,2006,20060410,MT
49.1436192,-112.0797494,06134500,mb01,39,65.6,MILK RIVER @ Milk River AB  (23)      ,MAR-SEP VOLUME,bound_10_30_50_70_90,16.4,24,60,72,105,25,37,91,110,160,2,2006,20060410,MT
48.9828,-110.4694,06135100,mb01,37,83.3,MILK RIVER @ Eastern Crossing(23)      ,MAR-JUL VOLUME,bound_10_30_50_70_90,22,30,69,93,135,26,36,83,112,162,2,2006,20060410,MT
48.9828,-110.4694,06135100,mb01,39,87.7,MILK RIVER @ Eastern Crossing(23)      ,MAR-SEP VOLUME,bound_10_30_50_70_90,22,32,75,99,145,25,36,86,113,165,2,2006,20060410,MT
48.4093,-109.7222,06140200,mb01,37,9.6,BEAVER CREEK near Havre                 ,MAR-JUL VOLUME,bound_10_30_50_70_90,0.29,4.7,7.7,10.7,15.1,3,49,80,111,157,2,2006,20060410,MT
48.4093,-109.7222,06140200,mb01,47,8.7,BEAVER CREEK near Havre                 ,APR-JUL VOLUME,bound_10_30_50_70_90,0.87,4.5,7,9.4,13,10,52,80,108,149,2,2006,20060410,MT
40.9374736,-106.3383597,06620000,pb01,47,245,NORTH PLATTE RIVER nr Northgate         ,APR-JUL VOLUME,bound_10_30_50_70_90,219,279,325,374,452,89,114,133,153,184,2,2006,20060410,CO
40.9374736,-106.3383597,06620000,pb01,49,270,NORTH PLATTE RIVER nr Northgate         ,APR-SEP VOLUME,bound_10_30_50_70_90,250,315,360,405,470,93,117,133,150,174,2,2006,20060410,CO
41.3032986,-106.7153128,06625000,pb01,47,156,ENCAMPMENT RIVER nr Encampment          ,APR-JUL VOLUME,bound_10_30_50_70_90,174,199,215,230,255,112,128,138,147,163,2,2006,20060410,WY
41.3032986,-106.7153128,06625000,pb01,49,165,ENCAMPMENT RIVER nr Encampment          ,APR-SEP VOLUME,bound_10_30_50_70_90,183,210,225,240,265,111,127,136,145,161,2,2006,20060410,WY
41.8721814,-107.0575464,06630000,pb01,47,670,NORTH PLATTE RIVER nr Sinclair          ,APR-JUL VOLUME,bound_10_30_50_70_90,665,820,920,1020,1170,99,122,137,152,175,2,2006,20060410,WY
41.8721814,-107.0575464,06630000,pb01,49,725,NORTH PLATTE RIVER nr Sinclair          ,APR-SEP VOLUME,bound_10_30_50_70_90,720,885,995,1110,1270,99,122,137,153,175,2,2006,20060410,WY
41.5852456,-106.2227908,06632400,pb01,47,53,ROCK CREEK nr Arlington                 ,APR-JUL VOLUME,bound_10_30_50_70_90,45,55,63,71,84,85,104,119,134,158,2,2006,20060410,WY
41.5852456,-106.2227908,06632400,pb01,49,57,ROCK CREEK nr Arlington                 ,APR-SEP VOLUME,bound_10_30_50_70_90,49,60,68,76,90,86,105,119,133,158,2,2006,20060410,WY
42.0096844,-106.513083,06635000,pb01,47,122,MEDICINE BOW RIVER abv Seminoe          ,APR-JUL VOLUME,bound_10_30_50_70_90,44,77,104,136,190,36,63,85,111,156,2,2006,20060410,WY
42.0096844,-106.513083,06635000,pb01,49,128,MEDICINE BOW RIVER abv Seminoe          ,APR-SEP VOLUME,bound_10_30_50_70_90,47,81,109,142,197,37,63,85,111,154,2,2006,20060410,WY
42.1557925,-106.908655,06635500,pb01,47,800,SEMINOE RESERVOIR Inflow                ,APR-JUL VOLUME,bound_10_30_50_70_90,710,900,1030,1160,1350,89,112,129,145,169,2,2006,20060410,WY
42.1557925,-106.908655,06635500,pb01,49,860,SEMINOE RESERVOIR Inflow                ,APR-SEP VOLUME,bound_10_30_50_70_90,820,995,1110,1230,1400,95,116,129,143,163,2,2006,20060410,WY
42.4577364,-107.1964467,06639000,pb01,47,74,SWEETWATER RIVER nr Alcova              ,APR-JUL VOLUME,bound_10_30_50_70_90,31,59,77,95,123,42,80,104,128,166,2,2006,20060410,WY
42.4577364,-107.1964467,06639000,pb01,49,80,SWEETWATER RIVER nr Alcova              ,APR-SEP VOLUME,bound_10_30_50_70_90,36,64,83,102,130,45,80,104,128,162,2,2006,20060410,WY
42.6810781,-105.63055,06649000,pb01,47,24,LaPRELE CREEK abv Reservoir             ,APR-JUL VOLUME,bound_10_30_50_70_90,2,12.1,19,26,36,8,50,79,108,150,2,2006,20060410,WY
42.6810781,-105.63055,06649000,pb01,49,24,LaPRELE CREEK abv Reservoir             ,APR-SEP VOLUME,bound_10_30_50_70_90,2.1,12.3,19.3,26,36,9,51,80,108,150,2,2006,20060410,WY
42.8638553,-105.866115,06646600,pb01,47,37.5,DEER CREEK at Glenrock                  ,APR-JUL VOLUME,bound_10_30_50_70_90,18,25,30,35,42,48,67,80,93,112,2,2006,20060410,WY
42.8638553,-105.866115,06646600,pb01,49,41,DEER CREEK at Glenrock                  ,APR-SEP VOLUME,bound_10_30_50_70_90,18,26,31,36,44,44,63,76,88,107,2,2006,20060410,WY
42.6505239,-105.1633103,06652000,pb01,47,152,NORTH PLATTE - Alcova to Orin Gain      ,APR-JUL VOLUME,bound_10_30_50_70_90,31,88,126,164,221,20,58,83,108,145,2,2006,20060410,WY
42.6505239,-105.1633103,06652000,pb01,49,161,NORTH PLATTE - Alcova to Orin Gain      ,APR-SEP VOLUME,bound_10_30_50_70_90,37,95,134,173,229,23,59,83,107,142,2,2006,20060410,WY
42.4569133,-104.9477478,06652800,pb01,47,960,NORTH PLATTE RIVER blw Glendo Res       ,APR-JUL VOLUME,bound_10_30_50_70_90,985,1140,1250,1360,1510,103,119,130,142,157,2,2006,20060410,WY
42.4569133,-104.9477478,06652800,pb01,49,990,NORTH PLATTE RIVER blw Glendo Res       ,APR-SEP VOLUME,bound_10_30_50_70_90,1020,1190,1300,1410,1580,103,120,131,142,160,2,2006,20060410,WY
42.2805242,-104.7546867,06656000,pb01,47,970,NORTH PLATTE RIVER blw Guernsey Res     ,APR-JUL VOLUME,bound_10_30_50_70_90,960,1160,1290,1420,1620,99,120,133,146,167,2,2006,20060410,WY
42.2805242,-104.7546867,06656000,pb01,49,1010,NORTH PLATTE RIVER blw Guernsey Res     ,APR-SEP VOLUME,bound_10_30_50_70_90,1010,1210,1350,1490,1690,100,120,134,148,167,2,2006,20060410,WY
41.1380303,-105.9808394,06659500,pb01,47,123,LARAMIE RIVER nr Woods                  ,APR-JUL VOLUME,bound_10_30_50_70_90,87,123,147,171,209,71,100,120,139,170,2,2006,20060410,WY
41.1380303,-105.9808394,06659500,pb01,49,135,LARAMIE RIVER nr Woods                  ,APR-SEP VOLUME,bound_10_30_50_70_90,95,134,161,188,228,70,99,119,139,169,2,2006,20060410,WY
41.2949728,-106.0347292,06661000,pb01,47,59,LITTLE LARAMIE RIVER nr Filmore         ,APR-JUL VOLUME,bound_10_30_50_70_90,54,64,71,78,88,92,108,120,132,149,2,2006,20060410,WY
41.2949728,-106.0347292,06661000,pb01,49,64,LITTLE LARAMIE RIVER nr Filmore         ,APR-SEP VOLUME,bound_10_30_50_70_90,56,69,77,85,98,88,108,120,133,153,2,2006,20060410,WY
38.9923,-105.8891,06694650,pb01,47,16.8,Antero Reservoir inflow                 ,APR-JUL VOLUME,bound_10_30_50_70_90,11.5,17.4,23,30,46,68,104,137,179,274,2,2006,20060410,CO
38.9923,-105.8891,06694650,pb01,49,20.6,Antero Reservoir inflow                 ,APR-SEP VOLUME,bound_10_30_50_70_90,13.5,21,28,38,58,66,102,136,184,282,2,2006,20060410,CO
38.9694,-105.6092,06694920,pb01,47,56,Spinney Mountain Reservoir inflow       ,APR-JUL VOLUME,bound_10_30_50_70_90,35,53,71,94,143,62,95,127,168,255,2,2006,20060410,CO
38.9694,-105.6092,06694920,pb01,49,69,Spinney Mountain Reservoir inflow       ,APR-SEP VOLUME,bound_10_30_50_70_90,44,68,92,124,192,64,99,133,180,278,2,2006,20060410,CO
38.9046,-105.4723,06695500,pb01,47,58,Elevenmile Canyon Reservoir inflow      ,APR-JUL VOLUME,bound_10_30_50_70_90,35,54,73,98,153,60,93,126,169,264,2,2006,20060410,CO
38.9046,-105.4723,06695500,pb01,49,72,Elevenmile Canyon Reservoir inflow      ,APR-SEP VOLUME,bound_10_30_50_70_90,43,68,94,129,206,60,94,131,179,286,2,2006,20060410,CO
39.2091,-105.267,06701000,pb01,47,115,Cheesman Lake inflow                    ,APR-JUL VOLUME,bound_10_30_50_70_90,69,108,147,200,315,60,94,128,174,274,2,2006,20060410,CO
39.2091,-105.267,06701000,pb01,49,142,Cheesman Lake inflow                    ,APR-SEP VOLUME,bound_10_30_50_70_90,85,134,184,252,400,60,94,130,177,282,2,2006,20060410,CO
39.4091558,-105.16999,06707500,pb01,47,205,South Platte River at South Platte      ,APR-JUL VOLUME,bound_10_30_50_70_90,106,175,245,344,566,52,85,120,168,276,2,2006,20060410,CO
39.4091558,-105.16999,06707500,pb01,49,255,South Platte River at South Platte      ,APR-SEP VOLUME,bound_10_30_50_70_90,134,221,310,435,717,53,87,122,171,281,2,2006,20060410,CO
39.63276587,-105.3366596,06710385,pb01,47,19.3,Bear Creek abv Evergreen                ,APR-JUL VOLUME,bound_10_30_50_70_90,10.8,17.8,25,35,58,56,92,130,181,301,2,2006,20060410,CO
39.63276587,-105.3366596,06710385,pb01,49,25,Bear Creek abv Evergreen                ,APR-SEP VOLUME,bound_10_30_50_70_90,15,24,33,45,72,60,96,132,180,288,2,2006,20060410,CO
39.6530433,-105.1958219,06710500,pb01,47,25,Bear Creek at Morrison                  ,APR-JUL VOLUME,bound_10_30_50_70_90,11.5,21,31,46,84,46,84,124,184,336,2,2006,20060410,CO
39.6530433,-105.1958219,06710500,pb01,49,31,Bear Creek at Morrison                  ,APR-SEP VOLUME,bound_10_30_50_70_90,15.5,27,40,59,104,50,87,129,190,335,2,2006,20060410,CO
39.7530431,-105.2352667,06719505,pb01,47,110,Clear Creek at Golden                   ,APR-JUL VOLUME,bound_10_30_50_70_90,84,110,127,144,171,76,100,115,131,155,2,2006,20060410,CO
39.7530431,-105.2352667,06719505,pb01,49,134,Clear Creek at Golden                   ,APR-SEP VOLUME,bound_10_30_50_70_90,102,133,154,176,205,76,99,115,131,153,2,2006,20060410,CO
40.2180408,-105.2599886,06724000,pb01,47,92,St. Vrain Creek at Lyons                ,APR-JUL VOLUME,bound_10_30_50_70_90,47,75,102,140,225,51,82,111,152,245,2,2006,20060410,CO
40.2180408,-105.2599886,06724000,pb01,49,107,St. Vrain Creek at Lyons                ,APR-SEP VOLUME,bound_10_30_50_70_90,56,88,119,162,255,52,82,111,151,238,2,2006,20060410,CO
40.0063747,-105.3308256,06727000,pb01,47,46,Boulder Creek nr Orodell                ,APR-JUL VOLUME,bound_10_30_50_70_90,40,48,55,63,76,87,104,120,137,165,2,2006,20060410,CO
40.0063747,-105.3308256,06727000,pb01,49,53,Boulder Creek nr Orodell                ,APR-SEP VOLUME,bound_10_30_50_70_90,46,55,63,72,87,87,104,119,136,164,2,2006,20060410,CO
39.9310975,-105.2958242,06729500,pb01,47,41.3,South Boulder nr Eldorado Spgs          ,APR-JUL VOLUME,bound_10_30_50_70_90,28,36,43,51,66,68,87,104,123,160,2,2006,20060410,CO
39.9310975,-105.2958242,06729500,pb01,49,45.7,South Boulder nr Eldorado Spgs          ,APR-SEP VOLUME,bound_10_30_50_70_90,31,40,48,56,73,68,88,105,123,160,2,2006,20060410,CO
40.4216503,-105.2266522,06738000,pb01,47,98,Big Thompson River at mouth nr Drake    ,APR-JUL VOLUME,bound_10_30_50_70_90,56,79,100,126,179,57,81,102,129,183,2,2006,20060410,CO
40.4216503,-105.2266522,06738000,pb01,49,117,Big Thompson River at mouth nr Drake    ,APR-SEP VOLUME,bound_10_30_50_70_90,71,97,121,150,205,61,83,103,128,175,2,2006,20060410,CO
40.6644261,-105.2244272,06752000,pb01,47,245,CACHE LaPOUDRE at Canyon Mouth          ,APR-JUL VOLUME,bound_10_30_50_70_90,162,215,260,315,420,66,88,106,129,171,2,2006,20060410,CO
40.6644261,-105.2244272,06752000,pb01,49,275,CACHE LaPOUDRE at Canyon Mouth          ,APR-SEP VOLUME,bound_10_30_50_70_90,182,240,290,350,465,66,87,105,127,169,2,2006,20060410,CO
37.7247219,-107.2556094,08213500,rg01,47,118,Rio Grande at Thirty Mile Bridge (2)    ,APR-JUL VOLUME,bound_10_30_50_70_90,56,71,82,95,115,47,60,69,81,97,2,2006,20060410,CO
37.7247219,-107.2556094,08213500,rg01,49,136,Rio Grande At Thirty Mile Bridge (2)    ,APR-SEP VOLUME,bound_10_30_50_70_90,59,78,92,107,132,43,57,68,79,97,2,2006,20060410,CO
37.7211,-107.2667,08213499,rg01,47,118,Rio Grande Reservoir Inflow             ,APR-JUL VOLUME,bound_10_30_50_70_90,56,71,82,95,115,47,60,69,81,97,2,2006,20060410,CO
37.7669464,-106.831433,08217500,rg01,49,345,Rio Grande At Wagon Wheel Gap (2)       ,APR-SEP VOLUME,bound_10_30_50_70_90,136,183,220,260,325,39,53,64,75,94,2,2006,20060410,CO
37.6569489,-106.6492083,08219500,rg01,49,132,South Fork Rio Grande at South Fork     ,APR-SEP VOLUME,bound_10_30_50_70_90,44,61,75,89,111,33,46,57,67,84,2,2006,20060410,CO
37.6894475,-106.46115,08220000,rg01,49,531,Rio Grande nr Del Norte (2)             ,APR-SEP VOLUME,bound_10_30_50_70_90,199,264,315,372,469,37,50,59,70,88,2,2006,20060410,CO
38.1633331,-106.290583,08227000,rg01,49,33,Saguache Creek nr Saguache (2)          ,APR-SEP VOLUME,bound_10_30_50_70_90,12.4,18.8,24,30,39,38,57,73,91,118,2,2006,20060410,CO
37.3747278,-106.3347558,08236000,rg01,49,70,Alamosa Creek Abv Terrace Reservoir     ,APR-SEP VOLUME,bound_10_30_50_70_90,23,32,39,47,62,33,46,56,67,89,2,2006,20060410,CO
37.2088969,-106.1883625,08238000,rg01,37,8.7,La Jara Creek nr Capulin                ,MAR-JUL VOLUME,bound_10_30_50_70_90,2.39,3.79,5,6.44,9.04,27,44,57,74,104,2,2006,20060410,CO
37.0834,-105.0351,08243000,rg01,49,40,Trinchera Water Supply (2)              ,APR-SEP VOLUME,bound_10_30_50_70_90,7.62,13.1,18,24,35,19,33,45,60,88,2,2006,20060410,CO
37.44723035,-105.5122349,08242500,rg01,49,12.2,Ute Ck nr Fort Garland                  ,APR-SEP VOLUME,bound_10_30_50_70_90,2.69,4.69,6.5,8.72,12.8,22,38,53,71,105,2,2006,20060410,CO
37.42500877,-105.4150108,08241500,rg01,49,8.8,Sangre de Cristo Creek                  ,APR-SEP VOLUME,bound_10_30_50_70_90,1.38,2.6,4,5.9,9.6,16,30,45,67,109,2,2006,20060410,CO
37.37473306,-105.2950101,08240500,rg01,49,12,Trinchera Creek abv Turners Ranch       ,APR-SEP VOLUME,bound_10_30_50_70_90,3.1,4.7,6.3,8.3,11.7,26,39,52,69,98,2,2006,20060410,CO
37.3550058,-106.5442036,08245000,rg01,49,71,Platoro Reservoir Inflow                ,APR-SEP VOLUME,bound_10_30_50_70_90,26,33,39,45,55,37,46,55,63,77,2,2006,20060410,CO
37.3550058,-106.5442036,08245000,rg01,47,64,Platoro Reservoir Inflow                ,APR-JUL VOLUME,bound_10_30_50_70_90,30,37,43,49,60,47,58,67,77,94,2,2006,20060410,CO
37.0539003,-106.1875269,08246500,rg01,49,200,Conejos River Near Mogote (2)           ,APR-SEP VOLUME,bound_10_30_50_70_90,70,96,115,136,171,35,48,58,68,86,2,2006,20060410,CO
36.9930694,-106.0386325,08247500,rg01,49,16.4,San Antonio River at Ortiz              ,APR-SEP VOLUME,bound_10_30_50_70_90,2.68,4.68,6.5,8.75,12.9,16,29,40,53,79,2,2006,20060410,CO
36.9822358,-106.0736333,08248000,rg01,49,74,Los Pinos River nr Ortiz                ,APR-SEP VOLUME,bound_10_30_50_70_90,25,35,43,52,68,34,47,58,70,92,2,2006,20060410,CO
37.1839044,-105.4258453,08250000,rg01,49,23,Culebra Creek at San Luis (2)           ,APR-SEP VOLUME,bound_10_30_50_70_90,4.86,9.09,13,17.9,27,21,40,57,78,117,2,2006,20060410,CO
36.8755828,-105.2797264,08253900,rg01,37,10.6,Costilla Reservoir Inflow               ,MAR-JUL VOLUME,bound_10_30_50_70_90,2.37,3.98,5.4,7.13,10.3,22,38,51,67,97,2,2006,20060410,NM
36.9669669,-105.506953,08255500,rg01,37,26,Costilla Creek Near Costilla (2)        ,MAR-JUL VOLUME,bound_10_30_50_70_90,5.02,8.92,12.5,16.9,25,19,34,48,65,96,2,2006,20060410,NM
36.6816903,-105.6563967,08266820,rg01,37,35,Red River blw Fish Hatchery nr Questa   ,MAR-JUL VOLUME,bound_10_30_50_70_90,8.8,11.4,15,19.1,26,25,33,43,55,74,2,2006,20060410,NM
36.5416931,-105.5563978,08267500,rg01,37,18.5,Rio Hondo Near Valdez                   ,MAR-JUL VOLUME,bound_10_30_50_70_90,3.37,5.63,7.5,9.64,13.3,18,30,41,52,72,2,2006,20060410,NM
36.4394725,-105.5036203,08269000,rg01,37,17.7,Rio Pueblo de Taos nr Taos              ,MAR-JUL VOLUME,bound_10_30_50_70_90,2.1,3.36,5.3,7.68,12,12,19,30,43,68,2,2006,20060410,NM
36.3775242,-105.6686242,08276300,rg01,37,40,Rio Pueblo de Taos blw Los Cordovas     ,MAR-JUL VOLUME,bound_10_30_50_70_90,2,4,8,14,26,5,10,20,35,65,2,2006,20060410,NM
36.2108564,-105.9136306,08279000,rg01,37,51,Embudo Creek at Dixon                   ,MAR-JUL VOLUME,bound_10_30_50_70_90,2.5,8.73,15,23,38,5,17,29,45,75,2,2006,20060410,NM
36.580015,-106.7239264,08285500,rg01,37,237,El Vado Reservoir Inflow (2)            ,MAR-JUL VOLUME,bound_10_30_50_70_90,44,79,108,142,200,19,33,46,60,84,2,2006,20060410,NM
36.580015,-106.7239264,08285500,rg01,47,220,El Vado Reservoir Inflow (2)            ,APR-JUL VOLUME,bound_10_30_50_70_90,40,73,102,135,193,18,33,46,61,88,2,2006,20060410,NM
35.6616936,-106.7433689,08324000,rg01,37,47,Jemez River near Jemez                  ,MAR-JUL VOLUME,bound_10_30_50_70_90,5.6,7.1,10.5,16,26,12,15,22,34,55,2,2006,20060410,NM
35.3900369,-106.5347492,08329000,rg01,37,45,Jemez River blw Jemez Canyon Dam (2)    ,MAR-JUL VOLUME,bound_10_30_50_70_90,3.6,4.9,6.5,11.9,23,8,11,14,26,51,2,2006,20060410,NM
35.9647475,-105.9044647,08291000,rg01,37,18.9,Santa Cruz River at Cundiyo             ,MAR-JUL VOLUME,bound_10_30_50_70_90,2.6,4.07,6.5,9.5,15,14,22,34,50,79,2,2006,20060410,NM
35.8461386,-105.9052986,08294210,rg01,37,6.9,Nambe Falls Reservoir Inflow            ,MAR-JUL VOLUME,bound_10_30_50_70_90,0.83,1.32,2.2,3.31,5.34,12,19,32,48,77,2,2006,20060410,NM
35.7389183,-105.9061319,08302500,rg01,37,2.4,Tesuque Creek abv diversions            ,MAR-JUL VOLUME,bound_10_30_50_70_90,0.19,0.48,0.85,1.2,1.92,8,20,35,50,80,2,2006,20060410,NM
35.8747475,-106.1422469,08313000,rg01,37,757,Rio Grande at Otowi Bridge (2)          ,MAR-JUL VOLUME,bound_10_30_50_70_90,105,209,300,408,596,14,28,40,54,79,2,2006,20060410,NM
33.6806222,-106.9922533,08358400,rg01,37,573,Rio Grande at San Marcial (2)           ,MAR-JUL VOLUME,bound_10_30_50_70_90,32,75,145,237,414,6,13,25,41,72,2,2006,20060410,NM
35.6866983,-105.8436306,08316000,rg01,37,4.6,Santa Fe River nr Santa Fe (2)          ,MAR-JUL VOLUME,bound_10_30_50_70_90,0.6,0.92,1.25,2.04,3.55,13,20,27,44,77,2,2006,20060410,NM
35.7083661,-105.6825169,08378500,rg01,37,58,Pecos River nr Pecos                    ,MAR-JUL VOLUME,bound_10_30_50_70_90,7.5,16.2,22,31,47,13,28,38,53,81,2,2006,20060410,NM
35.1789403,-105.1088897,08379500,rg01,37,64,Pecos River nr Anton Chico              ,MAR-JUL VOLUME,bound_10_30_50_70_90,3.2,9.6,21,34,60,5,15,33,53,94,2,2006,20060410,NM
35.6519858,-105.3188997,08380500,rg01,37,9.8,Gallinas Creek nr Montezuma             ,MAR-JUL VOLUME,bound_10_30_50_70_90,0.98,1.36,3,5.27,9.77,10,14,31,54,100,2,2006,20060410,NM
35.0283,-104.6883,08382810,rg01,37,53,Santa Rosa Lake Inflow                  ,MAR-JUL VOLUME,bound_10_30_50_70_90,1.49,8.27,16,26,46,3,16,30,49,87,2,2006,20060410,NM
33.3267506,-105.6277628,08387000,rg01,36,7.4,Rio Ruidoso at Hollywood                ,MAR-JUN VOLUME,bound_10_30_50_70_90,0.74,1.12,2,3.13,5.25,10,15,27,42,71,2,2006,20060410,NM
32.8547972,-107.9736497,08477110,rg01,25,2.1,Mimbres River at Mimbres                ,FEB-MAY VOLUME,bound_10_30_50_70_90,0.34,0.52,0.7,1.42,2.92,16,25,33,68,139,2,2006,20060410,NM
42.4568006,-122.242801,11504500,ru01,47,5.8,FOURMILE LAKE net Inflow  (2)           ,APR-JUL VOLUME,bound_10_30_50_70_90,5.46,6.62,7.4,8.18,9.34,94,114,128,141,161,2,2006,20060410,OR
42.4568006,-122.242801,11504500,ru01,49,7.1,FOURMILE LAKE net Inflow  (2)           ,APR-SEP VOLUME,bound_10_30_50_70_90,6.96,8.12,8.9,9.68,10.84,98,114,125,136,153,2,2006,20060410,OR
42.1720811,-122.4678025,11514000,ru01,47,4.8,HYATT PRAIRIE RES net Inflow  (2)       ,APR-JUL VOLUME,bound_10_30_50_70_90,3.67,5.06,6,6.94,8.33,76,105,125,145,174,2,2006,20060410,OR
42.9303986,-122.9483872,14308000,ru01,47,193,SOUTH UMPQUA at Tiller                  ,APR-JUL VOLUME,bound_10_30_50_70_90,161,211,245,279,329,83,109,127,145,170,2,2006,20060410,OR
42.9303986,-122.9483872,14308000,ru01,49,205,SOUTH UMPQUA at Tiller                  ,APR-SEP VOLUME,bound_10_30_50_70_90,180,231,265,299,350,88,113,129,146,171,2,2006,20060410,OR
42.8248428,-123.1789492,14309000,ru01,27,42,COW CREEK near Azalea                   ,FEB-JUL VOLUME,bound_10_30_50_70_90,31,44,52,60,73,74,105,124,143,174,2,2006,20060410,OR
42.8248428,-123.1789492,14309000,ru01,47,16.5,COW CREEK near Azalea                   ,APR-JUL VOLUME,bound_10_30_50_70_90,11.7,16.6,20,23,28,71,101,121,139,170,2,2006,20060410,OR
42.8248428,-123.1789492,14309000,ru01,49,17.7,COW CREEK near Azalea                   ,APR-SEP VOLUME,bound_10_30_50_70_90,13.4,18.5,22,26,31,76,105,124,147,175,2,2006,20060410,OR
43.1331717,-123.3984053,14312000,ru01,47,400,SOUTH UMPQUA near Brockway              ,APR-JUL VOLUME,bound_10_30_50_70_90,249,387,480,573,711,62,97,120,143,178,2,2006,20060410,OR
43.1331717,-123.3984053,14312000,ru01,49,420,SOUTH UMPQUA near Brockway              ,APR-SEP VOLUME,bound_10_30_50_70_90,277,416,510,604,743,66,99,121,144,177,2,2006,20060410,OR
43.2442903,-122.2872597,14314500,ru01,49,67,CLEARWATER above Trap Creek  (2)        ,APR-SEP VOLUME,bound_10_30_50_70_90,66,74,79,84,92,99,110,118,125,137,2,2006,20060410,OR
43.2956764,-122.5372683,14316500,ru01,49,151,NORTH UMPQUA nr Toketee Falls  (2)      ,APR-SEP VOLUME,bound_10_30_50_70_90,148,169,183,197,218,98,112,121,130,144,2,2006,20060410,OR
43.27206,-123.4122992,14319500,ru01,47,795,NORTH UMPQUA at Winchester              ,APR-JUL VOLUME,bound_10_30_50_70_90,728,872,970,1068,1212,92,110,122,134,152,2,2006,20060410,OR
43.27206,-123.4122992,14319500,ru01,49,920,NORTH UMPQUA at Winchester              ,APR-SEP VOLUME,bound_10_30_50_70_90,879,1028,1130,1232,1381,96,112,123,134,150,2,2006,20060410,OR
42.7748492,-122.4997586,14328000,ru01,47,245,ROGUE above Prospect                    ,APR-JUL VOLUME,bound_10_30_50_70_90,243,277,300,323,357,99,113,122,132,146,2,2006,20060410,OR
42.7748492,-122.4997586,14328000,ru01,49,300,ROGUE above Prospect                    ,APR-SEP VOLUME,bound_10_30_50_70_90,305,344,370,396,435,102,115,123,132,145,2,2006,20060410,OR
42.7081844,-122.3928094,14332000,ru01,47,58,SF ROGUE near Prospect  (2)             ,APR-JUL VOLUME,bound_10_30_50_70_90,56,65,72,79,88,97,112,124,136,152,2,2006,20060410,OR
42.7081844,-122.3928094,14332000,ru01,49,70,SF ROGUE near Prospect  (2)             ,APR-SEP VOLUME,bound_10_30_50_70_90,69,80,88,96,107,99,114,126,137,153,2,2006,20060410,OR
42.7776275,-122.4275342,14333500,ru01,47,34,RED BLANKET CK nr Prospect              ,APR-JUL VOLUME,bound_10_30_50_70_90,30,37,42,47,54,88,109,124,138,159,2,2006,20060410,OR
42.5401289,-122.5553106,14335500,ru01,47,34,SF BIG BUTTE CK nr Butte Falls          ,APR-JUL VOLUME,bound_10_30_50_70_90,31,39,44,49,57,91,115,129,144,168,2,2006,20060410,OR
42.4081856,-122.601143,14341500,ru01,49,32,SF LITTLE BUTTE CK nr Lakecreek (2)     ,APR-SEP VOLUME,bound_10_30_50_70_90,30,37,42,47,54,94,116,131,147,169,2,2006,20060410,OR
42.3762453,-122.3566914,14342500,ru01,49,13.4,NF LITTLE BUTTE CK nr Lakecreek (2)     ,APR-SEP VOLUME,bound_10_30_50_70_90,13.8,16.6,18.5,20,23,103,124,138,149,172,2,2006,20060410,OR
42.4373458,-122.9872678,14359000,ru01,47,730,ROGUE R at Raygold (2)                  ,APR-JUL VOLUME,bound_10_30_50_70_90,727,851,935,1019,1143,100,117,128,140,157,2,2006,20060410,OR
42.4373458,-122.9872678,14359000,ru01,49,890,ROGUE R at Raygold (2)                  ,APR-SEP VOLUME,bound_10_30_50_70_90,889,1026,1120,1214,1351,100,115,126,136,152,2,2006,20060410,OR
42.4303961,-123.3178364,14361500,ru01,47,740,ROGUE R at Grants Pass (2)              ,APR-JUL VOLUME,bound_10_30_50_70_90,722,864,960,1056,1198,98,117,130,143,162,2,2006,20060410,OR
42.4303961,-123.3178364,14361500,ru01,49,885,ROGUE R at Grants Pass (2)              ,APR-SEP VOLUME,bound_10_30_50_70_90,878,1034,1140,1246,1402,99,117,129,141,158,2,2006,20060410,OR
42.0637361,-123.1114358,14362000,ru01,27,205,APPLEGATE LAKE Net Inflow (2)           ,FEB-JUL VOLUME,bound_10_30_50_70_90,174,221,253,285,332,85,108,123,139,162,2,2006,20060410,OR
42.0637361,-123.1114358,14362000,ru01,29,215,APPLEGATE LAKE Net Inflow (2)           ,FEB-SEP VOLUME,bound_10_30_50_70_90,180,228,260,292,340,84,106,121,136,158,2,2006,20060410,OR
42.0637361,-123.1114358,14362000,ru01,47,112,APPLEGATE LAKE Net Inflow (2)           ,APR-JUL VOLUME,bound_10_30_50_70_90,94,121,140,159,186,84,108,125,142,166,2,2006,20060410,OR
42.0637361,-123.1114358,14362000,ru01,49,119,APPLEGATE LAKE Net Inflow (2)           ,APR-SEP VOLUME,bound_10_30_50_70_90,103,131,150,169,197,87,110,126,142,166,2,2006,20060410,OR
42.6415097,-123.2122808,14371500,ru01,27,21,GRAVE CREEK at Pease Bridge             ,FEB-JUL VOLUME,bound_10_30_50_70_90,16.1,23,27,31,38,77,110,129,148,181,2,2006,20060410,OR
42.1595611,-123.4789508,14375100,ru01,47,52,SUCKER CK blw Little Grayback           ,APR-JUL VOLUME,bound_10_30_50_70_90,46,59,68,77,90,88,113,131,148,173,2,2006,20060410,OR
42.1595611,-123.4789508,14375100,ru01,49,56,SUCKER CK blw Little Grayback           ,APR-SEP VOLUME,bound_10_30_50_70_90,50,64,73,82,96,89,114,130,146,171,2,2006,20060410,OR
42.2317794,-123.66368,14377100,ru01,47,179,ILLINOIS R near Kerby                   ,APR-JUL VOLUME,bound_10_30_50_70_90,143,189,220,251,297,80,106,123,140,166,2,2006,20060410,OR
42.2317794,-123.66368,14377100,ru01,49,186,ILLINOIS R near Kerby                   ,APR-SEP VOLUME,bound_10_30_50_70_90,152,199,230,261,308,82,107,124,140,166,2,2006,20060410,OR
44.09888889,-110.6675,13010065,sn01,47,470,SNAKE at Flagg Ranch                    ,APR-JUL VOLUME,bound_10_30_50_70_90,495,555,595,635,695,105,118,127,135,148,2,2006,20060410,WY
44.09888889,-110.6675,13010065,sn01,49,515,SNAKE at Flagg Ranch                    ,APR-SEP VOLUME,bound_10_30_50_70_90,540,605,650,695,760,105,117,126,135,148,2,2006,20060410,WY
43.8585508,-110.5865969,13011000,sn01,47,815,SNAKE nr Moran (12)                    ,APR-JUL VOLUME,bound_05_30_50_70_95,805,920,975,1025,1145,99,113,120,126,140,2,2006,20060410,WY
43.8585508,-110.5865969,13011000,sn01,49,905,SNAKE nr Moran (12)                    ,APR-SEP VOLUME,bound_05_30_50_70_95,890,1020,1080,1140,1270,98,113,119,126,140,2,2006,20060410,WY
43.8510531,-110.5171506,13011500,sn01,47,171,PACIFIC CREEK at Moran                  ,APR-JUL VOLUME,bound_10_30_50_70_90,192,210,225,240,260,112,123,132,140,152,2,2006,20060410,WY
43.8510531,-110.5171506,13011500,sn01,49,178,PACIFIC CREEK at Moran                  ,APR-SEP VOLUME,bound_10_30_50_70_90,200,220,235,250,270,112,124,132,140,152,2,2006,20060410,WY
43.1963133,-110.8890933,13022500,sn01,47,2370,SNAKE ab resv nr Alpine (12)           ,APR-JUL VOLUME,bound_05_30_50_70_95,2280,2630,2780,2930,3280,96,111,117,124,138,2,2006,20060410,WY
43.1963133,-110.8890933,13022500,sn01,49,2730,SNAKE ab resv nr Alpine (12)           ,APR-SEP VOLUME,bound_05_30_50_70_95,2610,2990,3170,3350,3730,96,110,116,123,137,2,2006,20060410,WY
43.1429781,-110.9768761,13023000,sn01,47,340,GREYS above Palisades                   ,APR-JUL VOLUME,bound_10_30_50_70_90,335,385,415,445,495,99,113,122,131,146,2,2006,20060410,WY
43.1429781,-110.9768761,13023000,sn01,49,395,GREYS above Palisades                   ,APR-SEP VOLUME,bound_10_30_50_70_90,395,445,480,515,565,100,113,122,130,143,2,2006,20060410,WY
43.0796433,-111.037435,13027500,sn01,47,340,SALT near Etna                          ,APR-JUL VOLUME,bound_10_30_50_70_90,315,370,410,450,505,93,109,121,132,149,2,2006,20060410,WY
43.0796433,-111.037435,13027500,sn01,49,420,SALT near Etna                          ,APR-SEP VOLUME,bound_10_30_50_70_90,390,460,505,550,620,93,110,120,131,148,2,2006,20060410,WY
43.3507517,-111.2191103,13032500,sn01,47,3330,SNAKE nr Irwin (12)                    ,APR-JUL VOLUME,bound_05_30_50_70_95,3150,3680,3920,4160,4690,95,111,118,125,141,2,2006,20060410,ID
43.3507517,-111.2191103,13032500,sn01,49,3870,SNAKE nr Irwin (12)                    ,APR-SEP VOLUME,bound_05_30_50_70_95,3680,4280,4550,4820,5420,95,111,118,125,140,2,2006,20060410,ID
43.6124142,-111.65996,13037500,sn01,47,3560,SNAKE near Heise (2)                    ,APR-JUL VOLUME,bound_10_30_50_70_90,3510,3900,4170,4440,4830,99,110,117,125,136,2,2006,20060410,ID
43.6124142,-111.65996,13037500,sn01,49,4160,SNAKE near Heise (2)                    ,APR-SEP VOLUME,bound_10_30_50_70_90,4120,4570,4870,5170,5620,99,110,117,124,135,2,2006,20060410,ID
44.0749139,-111.5002347,13046000,sn01,47,570,HENRYS FORK near Ashton (2)             ,APR-JUL VOLUME,bound_10_30_50_70_90,535,590,625,660,715,94,104,110,116,125,2,2006,20060410,ID
44.0749139,-111.5002347,13046000,sn01,49,765,HENRYS FORK near Ashton (2)             ,APR-SEP VOLUME,bound_10_30_50_70_90,735,795,840,885,945,96,104,110,116,124,2,2006,20060410,ID
44.0561111,-111.358611,13047600,sn01,47,380,FALLS RIVER nr Ashton (2)               ,APR-JUL VOLUME,bound_10_30_50_70_90,360,405,435,465,510,95,107,114,122,134,2,2006,20060410,ID
44.0561111,-111.358611,13047600,sn01,49,450,FALLS RIVER nr Ashton (2)               ,APR-SEP VOLUME,bound_10_30_50_70_90,430,480,515,550,600,96,107,114,122,133,2,2006,20060410,ID
43.7815819,-111.2091128,13052200,sn01,47,165,TETON RIVER NEAR DRIGGS                 ,APR-JUL VOLUME,bound_10_30_50_70_90,142,171,190,209,240,86,104,115,127,145,2,2006,20060410,ID
43.7815819,-111.2091128,13052200,sn01,49,210,TETON RIVER NEAR DRIGGS                 ,APR-SEP VOLUME,bound_10_30_50_70_90,181,216,240,265,300,86,103,114,126,143,2,2006,20060410,ID
43.927135,-111.616071,13055000,sn01,47,405,TETON near St. Anthony                  ,APR-JUL VOLUME,bound_10_30_50_70_90,360,420,460,500,560,89,104,114,123,138,2,2006,20060410,ID
43.927135,-111.616071,13055000,sn01,49,480,TETON near St. Anthony                  ,APR-SEP VOLUME,bound_10_30_50_70_90,430,500,545,590,660,90,104,114,123,138,2,2006,20060410,ID
43.8260219,-111.9049692,13056500,sn01,47,1560,HENRYS FORK near Rexburg (2)            ,APR-JUL VOLUME,bound_10_30_50_70_90,1480,1650,1760,1870,2040,95,106,113,120,131,2,2006,20060410,ID
43.8260219,-111.9049692,13056500,sn01,49,2010,HENRYS FORK near Rexburg (2)            ,APR-SEP VOLUME,bound_10_30_50_70_90,1950,2130,2260,2390,2570,97,106,112,119,128,2,2006,20060410,ID
43.5929692,-111.769408,13058000,sn01,37,88,WILLOW CREEK nr Ririe                   ,MAR-JUL VOLUME,bound_10_30_50_70_90,70,90,105,121,147,80,102,119,138,167,2,2006,20060410,ID
43.1251919,-112.5191494,13069500,sn01,47,4600,SNAKE nr Blackfoot (12)                ,APR-JUL VOLUME,bound_05_30_50_70_95,4570,5260,5580,5900,6590,99,114,121,128,143,2,2006,20060410,ID
43.1251919,-112.5191494,13069500,sn01,49,5620,SNAKE nr Blackfoot (12)                ,APR-SEP VOLUME,bound_05_30_50_70_95,5810,6500,6820,7140,7830,103,116,121,127,139,2,2006,20060410,ID
43.0041,-111.7157,13063000,sn01,46,120,BLACKFOOT RESV INFLOW                   ,APR-JUN VOLUME,bound_10_30_50_70_90,97,125,145,165,194,81,104,121,138,162,2,2006,20060410,ID
